{"features":[{"geometry":{"coordinates":[-85.3102,35.06696],"type":"Point"},"properties":{"description":"","id":"marker-hu7tv79ghb","marker-color":"9c89cc","marker-size":"","marker-symbol":"marker","stop_code":"735","stop_desc":"","stop_id":"735","stop_name":"BUSH + SPEARS","stop_url":"","title":"BUSH + SPEARS","zone_id":""},"type":"Feature"},{"geometry":{"coordinates":[-85.30953,35.0507],"type":"Point"},"properties":{"description":"","id":"marker-hu7tv79b1","marker-color":"9c89cc","marker-size":"","marker-symbol":"marker","stop_code":"12","stop_desc":"","stop_id":"12","stop_name":"MARKET + FAMILY DOLLAR","stop_url":"","title":"MARKET + FAMILY DOLLAR","zone_id":""},"type":"Feature"},{"geometry":{"coordinates":[-85.30907,35.04235],"type":"Point"},"properties":{"description":"","id":"marker-hu7tv79b3","marker-color":"9c89cc","marker-size":"","marker-symbol":"marker","stop_code":"18","stop_desc":"","stop_id":"18","stop_name":"MARKET + 12TH","stop_url":"","title":"MARKET + 12TH","zone_id":""},"type":"Feature"},{"geometry":{"coordinates":[-85.30839,35.04095],"type":"Point"},"properties":{"description":"","id":"marker-hu7tv79b4","marker-color":"9c89cc","marker-size":"","marker-symbol":"marker","stop_code":"19","stop_desc":"","stop_id":"19","stop_name":"MARKET + COWART","stop_url":"","title":"MARKET + COWART","zone_id":""},"type":"Feature"},{"geometry":{"coordinates":[-85.30732,35.03638],"type":"Point"},"properties":{"description":"","id":"marker-hu7tv79b5","marker-color":"9c89cc","marker-size":"","marker-symbol":"marker","stop_code":"21","stop_desc":"","stop_id":"21","stop_name":"MARKET + MAIN","stop_url":"","title":"MARKET + MAIN","zone_id":""},"type":"Feature"},{"geometry":{"coordinates":[-85.30826,35.03465],"type":"Point"},"properties":{"description":"","id":"marker-hu7tv79b6","marker-color":"9c89cc","marker-size":"","marker-symbol":"marker","stop_code":"22","stop_desc":"","stop_id":"22","stop_name":"MARKET + 17TH","stop_url":"","title":"MARKET + 17TH","zone_id":""},"type":"Feature"},{"geometry":{"coordinates":[-85.30864,35.03276],"type":"Point"},"properties":{"description":"","id":"marker-hu7tv79b7","marker-color":"9c89cc","marker-size":"","marker-symbol":"marker","stop_code":"23","stop_desc":"","stop_id":"23","stop_name":"MARKET + 19TH","stop_url":"","title":"MARKET + 19TH","zone_id":""},"type":"Feature"},{"geometry":{"coordinates":[-85.30883,35.03179],"type":"Point"},"properties":{"description":"","id":"marker-hu7tv79b8","marker-color":"9c89cc","marker-size":"","marker-symbol":"marker","stop_code":"24","stop_desc":"","stop_id":"24","stop_name":"MARKET + 20TH","stop_url":"","title":"MARKET + 20TH","zone_id":""},"type":"Feature"},{"geometry":{"coordinates":[-85.30909,35.03082],"type":"Point"},"properties":{"description":"","id":"marker-hu7tv79b9","marker-color":"9c89cc","marker-size":"","marker-symbol":"marker","stop_code":"25","stop_desc":"","stop_id":"25","stop_name":"MARKET + 21ST","stop_url":"","title":"MARKET + 21ST","zone_id":""},"type":"Feature"},{"geometry":{"coordinates":[-85.31066,35.02755],"type":"Point"},"properties":{"description":"","id":"marker-hu7tv79ba","marker-color":"9c89cc","marker-size":"","marker-symbol":"marker","stop_code":"26","stop_desc":"","stop_id":"26","stop_name":"MARKET + E 25TH","stop_url":"","title":"MARKET + E 25TH","zone_id":""},"type":"Feature"},{"geometry":{"coordinates":[-85.31103,35.02674],"type":"Point"},"properties":{"description":"","id":"marker-hu7tv79bb","marker-color":"9c89cc","marker-size":"","marker-symbol":"marker","stop_code":"27","stop_desc":"","stop_id":"27","stop_name":"MARKET + W 25TH","stop_url":"","title":"MARKET + W 25TH","zone_id":""},"type":"Feature"},{"geometry":{"coordinates":[-85.31149,35.02592],"type":"Point"},"properties":{"description":"","id":"marker-hu7tv79bc","marker-color":"9c89cc","marker-size":"","marker-symbol":"marker","stop_code":"28","stop_desc":"","stop_id":"28","stop_name":"MARKET + 26TH","stop_url":"","title":"MARKET + 26TH","zone_id":""},"type":"Feature"},{"geometry":{"coordinates":[-85.312,35.01932],"type":"Point"},"properties":{"description":"","id":"marker-hu7tv79bd","marker-color":"9c89cc","marker-size":"","marker-symbol":"marker","stop_code":"29","stop_desc":"","stop_id":"29","stop_name":"MARKET + A PARK BLVD","stop_url":"","title":"MARKET + A PARK BLVD","zone_id":""},"type":"Feature"},{"geometry":{"coordinates":[-85.31293,35.01753],"type":"Point"},"properties":{"description":"","id":"marker-hu7tv79be","marker-color":"9c89cc","marker-size":"","marker-symbol":"marker","stop_code":"30","stop_desc":"","stop_id":"30","stop_name":"ALTON PK BLVD + 31ST","stop_url":"","title":"ALTON PK BLVD + 31ST","zone_id":""},"type":"Feature"},{"geometry":{"coordinates":[-85.31335,35.01679],"type":"Point"},"properties":{"description":"","id":"marker-hu7tv79bf","marker-color":"9c89cc","marker-size":"","marker-symbol":"marker","stop_code":"31","stop_desc":"","stop_id":"31","stop_name":"ALTON PK BLVD + RRX","stop_url":"","title":"ALTON PK BLVD + RRX","zone_id":""},"type":"Feature"},{"geometry":{"coordinates":[-85.31432,35.01504],"type":"Point"},"properties":{"description":"","id":"marker-hu7tv79bg","marker-color":"9c89cc","marker-size":"","marker-symbol":"marker","stop_code":"32","stop_desc":"","stop_id":"32","stop_name":"ALTON PK BLVD + 33RD","stop_url":"","title":"ALTON PK BLVD + 33RD","zone_id":""},"type":"Feature"},{"geometry":{"coordinates":[-85.31688,35.0158],"type":"Point"},"properties":{"description":"","id":"marker-hu7tv79bh","marker-color":"9c89cc","marker-size":"","marker-symbol":"marker","stop_code":"33","stop_desc":"","stop_id":"33","stop_name":"33RD + DELONG","stop_url":"","title":"33RD + DELONG","zone_id":""},"type":"Feature"},{"geometry":{"coordinates":[-85.31783,35.01613],"type":"Point"},"properties":{"description":"","id":"marker-hu7tv79bi","marker-color":"9c89cc","marker-size":"","marker-symbol":"marker","stop_code":"34","stop_desc":"","stop_id":"34","stop_name":"33RD + TARLTON","stop_url":"","title":"33RD + TARLTON","zone_id":""},"type":"Feature"},{"geometry":{"coordinates":[-85.31893,35.01652],"type":"Point"},"properties":{"description":"","id":"marker-hu7tv79bj","marker-color":"9c89cc","marker-size":"","marker-symbol":"marker","stop_code":"35","stop_desc":"","stop_id":"35","stop_name":"33RD + TEEN CHALLENGE","stop_url":"","title":"33RD + TEEN CHALLENGE","zone_id":""},"type":"Feature"},{"geometry":{"coordinates":[-85.3226,35.01714],"type":"Point"},"properties":{"description":"","id":"marker-hu7tv79bk","marker-color":"9c89cc","marker-size":"","marker-symbol":"marker","stop_code":"38","stop_desc":"","stop_id":"38","stop_name":"BROAD + GLENVIEW","stop_url":"","title":"BROAD + GLENVIEW","zone_id":""},"type":"Feature"},{"geometry":{"coordinates":[-85.32546,35.01374],"type":"Point"},"properties":{"description":"","id":"marker-hu7tv79bl","marker-color":"9c89cc","marker-size":"","marker-symbol":"marker","stop_code":"41","stop_desc":"","stop_id":"41","stop_name":"TENN AVE + WALGREENS","stop_url":"","title":"TENN AVE + WALGREENS","zone_id":""},"type":"Feature"},{"geometry":{"coordinates":[-85.32589,35.01298],"type":"Point"},"properties":{"description":"","id":"marker-hu7tv79bm","marker-color":"9c89cc","marker-size":"","marker-symbol":"marker","stop_code":"42","stop_desc":"","stop_id":"42","stop_name":"TENN AVE + 37TH","stop_url":"","title":"TENN AVE + 37TH","zone_id":""},"type":"Feature"},{"geometry":{"coordinates":[-85.32729,35.01143],"type":"Point"},"properties":{"description":"","id":"marker-hu7tv79bn","marker-color":"9c89cc","marker-size":"","marker-symbol":"marker","stop_code":"43","stop_desc":"","stop_id":"43","stop_name":"TENN AVE + SUNTRUST BANK","stop_url":"","title":"TENN AVE + SUNTRUST BANK","zone_id":""},"type":"Feature"},{"geometry":{"coordinates":[-85.32582,35.01063],"type":"Point"},"properties":{"description":"","id":"marker-hu7tv79bo","marker-color":"9c89cc","marker-size":"","marker-symbol":"marker","stop_code":"44","stop_desc":"","stop_id":"44","stop_name":"BI LO + BI LO STOP","stop_url":"","title":"BI LO + BI LO STOP","zone_id":""},"type":"Feature"},{"geometry":{"coordinates":[-85.32635,35.00819],"type":"Point"},"properties":{"description":"","id":"marker-hu7tv79bp","marker-color":"9c89cc","marker-size":"","marker-symbol":"marker","stop_code":"45","stop_desc":"","stop_id":"45","stop_name":"BI LO + 40TH","stop_url":"","title":"BI LO + 40TH","zone_id":""},"type":"Feature"},{"geometry":{"coordinates":[-85.32422,35.00813],"type":"Point"},"properties":{"description":"","id":"marker-hu7tv79bq","marker-color":"9c89cc","marker-size":"","marker-symbol":"marker","stop_code":"47","stop_desc":"","stop_id":"47","stop_name":"40TH + TEACHER PL","stop_url":"","title":"40TH + TEACHER PL","zone_id":""},"type":"Feature"},{"geometry":{"coordinates":[-85.32299,35.00817],"type":"Point"},"properties":{"description":"","id":"marker-hu7tv79br","marker-color":"9c89cc","marker-size":"","marker-symbol":"marker","stop_code":"48","stop_desc":"","stop_id":"48","stop_name":"40TH + SOUTHSIDE REC","stop_url":"","title":"40TH + SOUTHSIDE REC","zone_id":""},"type":"Feature"},{"geometry":{"coordinates":[-85.32134,35.00865],"type":"Point"},"properties":{"description":"","id":"marker-hu7tv79bs","marker-color":"9c89cc","marker-size":"","marker-symbol":"marker","stop_code":"49","stop_desc":"","stop_id":"49","stop_name":"PIROLA + POST OFFICE","stop_url":"","title":"PIROLA + POST OFFICE","zone_id":""},"type":"Feature"},{"geometry":{"coordinates":[-85.32031,35.01059],"type":"Point"},"properties":{"description":"","id":"marker-hu7tv79bt","marker-color":"9c89cc","marker-size":"","marker-symbol":"marker","stop_code":"50","stop_desc":"","stop_id":"50","stop_name":"PIROLA + 37TH","stop_url":"","title":"PIROLA + 37TH","zone_id":""},"type":"Feature"},{"geometry":{"coordinates":[-85.31873,35.01006],"type":"Point"},"properties":{"description":"","id":"marker-hu7tv79bu","marker-color":"9c89cc","marker-size":"","marker-symbol":"marker","stop_code":"51","stop_desc":"","stop_id":"51","stop_name":"37TH + CALVIN DONALDSON","stop_url":"","title":"37TH + CALVIN DONALDSON","zone_id":""},"type":"Feature"},{"geometry":{"coordinates":[-85.31742,35.00956],"type":"Point"},"properties":{"description":"","id":"marker-hu7tv79bv","marker-color":"9c89cc","marker-size":"","marker-symbol":"marker","stop_code":"52","stop_desc":"","stop_id":"52","stop_name":"37TH + ALTON PARK BLVD","stop_url":"","title":"37TH + ALTON PARK BLVD","zone_id":""},"type":"Feature"},{"geometry":{"coordinates":[-85.31789,35.00848],"type":"Point"},"properties":{"description":"","id":"marker-hu7tv79bw","marker-color":"9c89cc","marker-size":"","marker-symbol":"marker","stop_code":"53","stop_desc":"","stop_id":"53","stop_name":"38TH + ALTON PK BLVD","stop_url":"","title":"38TH + ALTON PK BLVD","zone_id":""},"type":"Feature"},{"geometry":{"coordinates":[-85.31637,35.0076],"type":"Point"},"properties":{"description":"","id":"marker-hu7tv79bx","marker-color":"9c89cc","marker-size":"","marker-symbol":"marker","stop_code":"54","stop_desc":"","stop_id":"54","stop_name":"38TH + OHLS","stop_url":"","title":"38TH + OHLS","zone_id":""},"type":"Feature"},{"geometry":{"coordinates":[-85.31527,35.0072],"type":"Point"},"properties":{"description":"","id":"marker-hu7tv79by","marker-color":"9c89cc","marker-size":"","marker-symbol":"marker","stop_code":"55","stop_desc":"","stop_id":"55","stop_name":"38TH + CHANDLER AVE","stop_url":"","title":"38TH + CHANDLER AVE","zone_id":""},"type":"Feature"},{"geometry":{"coordinates":[-85.31411,35.00677],"type":"Point"},"properties":{"description":"","id":"marker-hu7tv79bz","marker-color":"9c89cc","marker-size":"","marker-symbol":"marker","stop_code":"56","stop_desc":"","stop_id":"56","stop_name":"38TH + HIGHLAND","stop_url":"","title":"38TH + HIGHLAND","zone_id":""},"type":"Feature"},{"geometry":{"coordinates":[-85.31298,35.00634],"type":"Point"},"properties":{"description":"","id":"marker-hu7tv79b10","marker-color":"9c89cc","marker-size":"","marker-symbol":"marker","stop_code":"57","stop_desc":"","stop_id":"57","stop_name":"38TH + KIRKLAND","stop_url":"","title":"38TH + KIRKLAND","zone_id":""},"type":"Feature"},{"geometry":{"coordinates":[-85.31185,35.00591],"type":"Point"},"properties":{"description":"","id":"marker-hu7tv79b11","marker-color":"9c89cc","marker-size":"","marker-symbol":"marker","stop_code":"58","stop_desc":"","stop_id":"58","stop_name":"38TH + HUGHES","stop_url":"","title":"38TH + HUGHES","zone_id":""},"type":"Feature"},{"geometry":{"coordinates":[-85.31088,35.0052],"type":"Point"},"properties":{"description":"","id":"marker-hu7tv79b12","marker-color":"9c89cc","marker-size":"","marker-symbol":"marker","stop_code":"59","stop_desc":"","stop_id":"59","stop_name":"CENTRAL + 38TH","stop_url":"","title":"CENTRAL + 38TH","zone_id":""},"type":"Feature"},{"geometry":{"coordinates":[-85.31145,35.00412],"type":"Point"},"properties":{"description":"","id":"marker-hu7tv79b13","marker-color":"9c89cc","marker-size":"","marker-symbol":"marker","stop_code":"60","stop_desc":"","stop_id":"60","stop_name":"CENTRAL + 41ST","stop_url":"","title":"CENTRAL + 41ST","zone_id":""},"type":"Feature"},{"geometry":{"coordinates":[-85.31246,35.00223],"type":"Point"},"properties":{"description":"","id":"marker-hu7tv79b14","marker-color":"9c89cc","marker-size":"","marker-symbol":"marker","stop_code":"61","stop_desc":"","stop_id":"61","stop_name":"CENTRAL + HOOKER","stop_url":"","title":"CENTRAL + HOOKER","zone_id":""},"type":"Feature"},{"geometry":{"coordinates":[-85.31357,35.00019],"type":"Point"},"properties":{"description":"","id":"marker-hu7tv79b15","marker-color":"9c89cc","marker-size":"","marker-symbol":"marker","stop_code":"62","stop_desc":"","stop_id":"62","stop_name":"CENTRAL + 45TH","stop_url":"","title":"CENTRAL + 45TH","zone_id":""},"type":"Feature"},{"geometry":{"coordinates":[-85.31484,34.99761],"type":"Point"},"properties":{"description":"","id":"marker-hu7tv79b16","marker-color":"9c89cc","marker-size":"","marker-symbol":"marker","stop_code":"63","stop_desc":"","stop_id":"63","stop_name":"CENTRAL + 47TH","stop_url":"","title":"CENTRAL + 47TH","zone_id":""},"type":"Feature"},{"geometry":{"coordinates":[-85.31653,34.99459],"type":"Point"},"properties":{"description":"","id":"marker-hu7tv79b17","marker-color":"9c89cc","marker-size":"","marker-symbol":"marker","stop_code":"64","stop_desc":"","stop_id":"64","stop_name":"CENTRAL + VELSICOL 2","stop_url":"","title":"CENTRAL + VELSICOL 2","zone_id":""},"type":"Feature"},{"geometry":{"coordinates":[-85.31716,34.99344],"type":"Point"},"properties":{"description":"","id":"marker-hu7tv79b18","marker-color":"9c89cc","marker-size":"","marker-symbol":"marker","stop_code":"65","stop_desc":"","stop_id":"65","stop_name":"CENTRAL + 51ST","stop_url":"","title":"CENTRAL + 51ST","zone_id":""},"type":"Feature"},{"geometry":{"coordinates":[-85.31762,34.99261],"type":"Point"},"properties":{"description":"","id":"marker-hu7tv79b19","marker-color":"9c89cc","marker-size":"","marker-symbol":"marker","stop_code":"66","stop_desc":"","stop_id":"66","stop_name":"CENTRAL + ARLINGTON","stop_url":"","title":"CENTRAL + ARLINGTON","zone_id":""},"type":"Feature"},{"geometry":{"coordinates":[-85.3181,34.99172],"type":"Point"},"properties":{"description":"","id":"marker-hu7tv79b1a","marker-color":"9c89cc","marker-size":"","marker-symbol":"marker","stop_code":"67","stop_desc":"","stop_id":"67","stop_name":"CENTRAL + LYNCHBURG","stop_url":"","title":"CENTRAL + LYNCHBURG","zone_id":""},"type":"Feature"},{"geometry":{"coordinates":[-85.31866,34.99072],"type":"Point"},"properties":{"description":"","id":"marker-hu7tv79b1b","marker-color":"9c89cc","marker-size":"","marker-symbol":"marker","stop_code":"68","stop_desc":"","stop_id":"68","stop_name":"CENTRAL + BEDFORD","stop_url":"","title":"CENTRAL + BEDFORD","zone_id":""},"type":"Feature"},{"geometry":{"coordinates":[-85.31932,34.98893],"type":"Point"},"properties":{"description":"","id":"marker-hu7tv79b1c","marker-color":"9c89cc","marker-size":"","marker-symbol":"marker","stop_code":"69","stop_desc":"","stop_id":"69","stop_name":"HALSEY + CENTRA","stop_url":"","title":"HALSEY + CENTRA","zone_id":""},"type":"Feature"},{"geometry":{"coordinates":[-85.31856,34.98867],"type":"Point"},"properties":{"description":"","id":"marker-hu7tv79b1d","marker-color":"9c89cc","marker-size":"","marker-symbol":"marker","stop_code":"70","stop_desc":"","stop_id":"70","stop_name":"HALSEY + DORSEY","stop_url":"","title":"HALSEY + DORSEY","zone_id":""},"type":"Feature"},{"geometry":{"coordinates":[-85.31632,34.98916],"type":"Point"},"properties":{"description":"","id":"marker-hu7tv79b1e","marker-color":"9c89cc","marker-size":"","marker-symbol":"marker","stop_code":"71","stop_desc":"","stop_id":"71","stop_name":"DORRIS + 5232","stop_url":"","title":"DORRIS + 5232","zone_id":""},"type":"Feature"},{"geometry":{"coordinates":[-85.31591,34.9899],"type":"Point"},"properties":{"description":"","id":"marker-hu7tv79b1f","marker-color":"9c89cc","marker-size":"","marker-symbol":"marker","stop_code":"72","stop_desc":"","stop_id":"72","stop_name":"DORRIS + 5216","stop_url":"","title":"DORRIS + 5216","zone_id":""},"type":"Feature"},{"geometry":{"coordinates":[-85.31467,34.99044],"type":"Point"},"properties":{"description":"","id":"marker-hu7tv79b1g","marker-color":"9c89cc","marker-size":"","marker-symbol":"marker","stop_code":"73","stop_desc":"","stop_id":"73","stop_name":"52ND + FAGAN","stop_url":"","title":"52ND + FAGAN","zone_id":""},"type":"Feature"},{"geometry":{"coordinates":[-85.313,34.98982],"type":"Point"},"properties":{"description":"","id":"marker-hu7tv79b1h","marker-color":"9c89cc","marker-size":"","marker-symbol":"marker","stop_code":"74","stop_desc":"","stop_id":"74","stop_name":"52ND + 524","stop_url":"","title":"52ND + 524","zone_id":""},"type":"Feature"},{"geometry":{"coordinates":[-85.31185,34.98939],"type":"Point"},"properties":{"description":"","id":"marker-hu7tv79b1i","marker-color":"9c89cc","marker-size":"","marker-symbol":"marker","stop_code":"75","stop_desc":"","stop_id":"75","stop_name":"52ND + POLK","stop_url":"","title":"52ND + POLK","zone_id":""},"type":"Feature"},{"geometry":{"coordinates":[-85.31014,34.98876],"type":"Point"},"properties":{"description":"","id":"marker-hu7tv79b1j","marker-color":"9c89cc","marker-size":"","marker-symbol":"marker","stop_code":"76","stop_desc":"","stop_id":"76","stop_name":"52ND + WILSON","stop_url":"","title":"52ND + WILSON","zone_id":""},"type":"Feature"},{"geometry":{"coordinates":[-85.30907,34.9901],"type":"Point"},"properties":{"description":"","id":"marker-hu7tv79b1k","marker-color":"9c89cc","marker-size":"","marker-symbol":"marker","stop_code":"77","stop_desc":"","stop_id":"77","stop_name":"WILSON + 51ST","stop_url":"","title":"WILSON + 51ST","zone_id":""},"type":"Feature"},{"geometry":{"coordinates":[-85.30778,34.9899],"type":"Point"},"properties":{"description":"","id":"marker-hu7tv79b1l","marker-color":"9c89cc","marker-size":"","marker-symbol":"marker","stop_code":"78","stop_desc":"","stop_id":"78","stop_name":"51ST + WOODLAND VIEW","stop_url":"","title":"51ST + WOODLAND VIEW","zone_id":""},"type":"Feature"},{"geometry":{"coordinates":[-85.30554,34.98927],"type":"Point"},"properties":{"description":"","id":"marker-hu7tv79b1m","marker-color":"9c89cc","marker-size":"","marker-symbol":"marker","stop_code":"79","stop_desc":"","stop_id":"79","stop_name":"WOODLAND VIEW + JEFFERY","stop_url":"","title":"WOODLAND VIEW + JEFFERY","zone_id":""},"type":"Feature"},{"geometry":{"coordinates":[-85.3047,34.98951],"type":"Point"},"properties":{"description":"","id":"marker-hu7tv79b1n","marker-color":"9c89cc","marker-size":"","marker-symbol":"marker","stop_code":"80","stop_desc":"","stop_id":"80","stop_name":"WOODLAND VIEW + ANGELA","stop_url":"","title":"WOODLAND VIEW + ANGELA","zone_id":""},"type":"Feature"},{"geometry":{"coordinates":[-85.30489,34.9903],"type":"Point"},"properties":{"description":"","id":"marker-hu7tv79b1o","marker-color":"9c89cc","marker-size":"","marker-symbol":"marker","stop_code":"81","stop_desc":"","stop_id":"81","stop_name":"ANGELA + 4910","stop_url":"","title":"ANGELA + 4910","zone_id":""},"type":"Feature"},{"geometry":{"coordinates":[-85.30494,34.99131],"type":"Point"},"properties":{"description":"","id":"marker-hu7tv79b1p","marker-color":"9c89cc","marker-size":"","marker-symbol":"marker","stop_code":"82","stop_desc":"","stop_id":"82","stop_name":"ANGELA + 49TH","stop_url":"","title":"ANGELA + 49TH","zone_id":""},"type":"Feature"},{"geometry":{"coordinates":[-85.31296,34.99829],"type":"Point"},"properties":{"description":"","id":"marker-hu7tv79b1q","marker-color":"9c89cc","marker-size":"","marker-symbol":"marker","stop_code":"83","stop_desc":"","stop_id":"83","stop_name":"WORKMANS + DORRIS","stop_url":"","title":"WORKMANS + DORRIS","zone_id":""},"type":"Feature"},{"geometry":{"coordinates":[-85.3119,34.99791],"type":"Point"},"properties":{"description":"","id":"marker-hu7tv79b1r","marker-color":"9c89cc","marker-size":"","marker-symbol":"marker","stop_code":"84","stop_desc":"","stop_id":"84","stop_name":"WORKMANS + FAGAN","stop_url":"","title":"WORKMANS + FAGAN","zone_id":""},"type":"Feature"},{"geometry":{"coordinates":[-85.30991,34.9972],"type":"Point"},"properties":{"description":"","id":"marker-hu7tv79b1s","marker-color":"9c89cc","marker-size":"","marker-symbol":"marker","stop_code":"85","stop_desc":"","stop_id":"85","stop_name":"WORKMANS + JUNK YARD","stop_url":"","title":"WORKMANS + JUNK YARD","zone_id":""},"type":"Feature"},{"geometry":{"coordinates":[-85.30629,34.99574],"type":"Point"},"properties":{"description":"","id":"marker-hu7tv79b1t","marker-color":"9c89cc","marker-size":"","marker-symbol":"marker","stop_code":"86","stop_desc":"","stop_id":"86","stop_name":"WORKMANS + WILSON","stop_url":"","title":"WORKMANS + WILSON","zone_id":""},"type":"Feature"},{"geometry":{"coordinates":[-85.30753,34.99337],"type":"Point"},"properties":{"description":"","id":"marker-hu7tv79b1u","marker-color":"9c89cc","marker-size":"","marker-symbol":"marker","stop_code":"87","stop_desc":"","stop_id":"87","stop_name":"WILSON + 48TH","stop_url":"","title":"WILSON + 48TH","zone_id":""},"type":"Feature"},{"geometry":{"coordinates":[-85.30721,34.99228],"type":"Point"},"properties":{"description":"","id":"marker-hu7tv79b1v","marker-color":"9c89cc","marker-size":"","marker-symbol":"marker","stop_code":"88","stop_desc":"","stop_id":"88","stop_name":"49TH + WOODLAND VIEW","stop_url":"","title":"49TH + WOODLAND VIEW","zone_id":""},"type":"Feature"},{"geometry":{"coordinates":[-85.30605,34.99186],"type":"Point"},"properties":{"description":"","id":"marker-hu7tv79b1w","marker-color":"9c89cc","marker-size":"","marker-symbol":"marker","stop_code":"89","stop_desc":"","stop_id":"89","stop_name":"49TH + JEFFERY","stop_url":"","title":"49TH + JEFFERY","zone_id":""},"type":"Feature"},{"geometry":{"coordinates":[-85.30497,34.99125],"type":"Point"},"properties":{"description":"","id":"marker-hu7tv79b1x","marker-color":"9c89cc","marker-size":"","marker-symbol":"marker","stop_code":"90","stop_desc":"","stop_id":"90","stop_name":"ANGELA + 49TH","stop_url":"","title":"ANGELA + 49TH","zone_id":""},"type":"Feature"},{"geometry":{"coordinates":[-85.3164,34.98905],"type":"Point"},"properties":{"description":"","id":"marker-hu7tv79b1y","marker-color":"9c89cc","marker-size":"","marker-symbol":"marker","stop_code":"92","stop_desc":"","stop_id":"92","stop_name":"DORRIS + 5233","stop_url":"","title":"DORRIS + 5233","zone_id":""},"type":"Feature"},{"geometry":{"coordinates":[-85.31692,34.98825],"type":"Point"},"properties":{"description":"","id":"marker-hu7tv79b1z","marker-color":"9c89cc","marker-size":"","marker-symbol":"marker","stop_code":"93","stop_desc":"","stop_id":"93","stop_name":"DORRIS + HALSEY","stop_url":"","title":"DORRIS + HALSEY","zone_id":""},"type":"Feature"},{"geometry":{"coordinates":[-85.3184,34.9887],"type":"Point"},"properties":{"description":"","id":"marker-hu7tv79b20","marker-color":"9c89cc","marker-size":"","marker-symbol":"marker","stop_code":"94","stop_desc":"","stop_id":"94","stop_name":"HALSEY + DORSEY","stop_url":"","title":"HALSEY + DORSEY","zone_id":""},"type":"Feature"},{"geometry":{"coordinates":[-85.31948,34.98907],"type":"Point"},"properties":{"description":"","id":"marker-hu7tv79b21","marker-color":"9c89cc","marker-size":"","marker-symbol":"marker","stop_code":"95","stop_desc":"","stop_id":"95","stop_name":"HALSEY + CENTRAL","stop_url":"","title":"HALSEY + CENTRAL","zone_id":""},"type":"Feature"},{"geometry":{"coordinates":[-85.31881,34.99045],"type":"Point"},"properties":{"description":"","id":"marker-hu7tv79b22","marker-color":"9c89cc","marker-size":"","marker-symbol":"marker","stop_code":"96","stop_desc":"","stop_id":"96","stop_name":"CENTRAL + BEDFORD","stop_url":"","title":"CENTRAL + BEDFORD","zone_id":""},"type":"Feature"},{"geometry":{"coordinates":[-85.31813,34.99172],"type":"Point"},"properties":{"description":"","id":"marker-hu7tv79b23","marker-color":"9c89cc","marker-size":"","marker-symbol":"marker","stop_code":"97","stop_desc":"","stop_id":"97","stop_name":"CENTRAL + LYNCHBURG","stop_url":"","title":"CENTRAL + LYNCHBURG","zone_id":""},"type":"Feature"},{"geometry":{"coordinates":[-85.31767,34.99252],"type":"Point"},"properties":{"description":"","id":"marker-hu7tv79b24","marker-color":"9c89cc","marker-size":"","marker-symbol":"marker","stop_code":"98","stop_desc":"","stop_id":"98","stop_name":"CENTRAL + ARLINGTON","stop_url":"","title":"CENTRAL + ARLINGTON","zone_id":""},"type":"Feature"},{"geometry":{"coordinates":[-85.31707,34.9936],"type":"Point"},"properties":{"description":"","id":"marker-hu7tv79b25","marker-color":"9c89cc","marker-size":"","marker-symbol":"marker","stop_code":"99","stop_desc":"","stop_id":"99","stop_name":"CENTRAL + VELSICOL","stop_url":"","title":"CENTRAL + VELSICOL","zone_id":""},"type":"Feature"},{"geometry":{"coordinates":[-85.31427,34.99871],"type":"Point"},"properties":{"description":"","id":"marker-hu7tv79b26","marker-color":"9c89cc","marker-size":"","marker-symbol":"marker","stop_code":"100","stop_desc":"","stop_id":"100","stop_name":"CENTRAL + WORKMANS","stop_url":"","title":"CENTRAL + WORKMANS","zone_id":""},"type":"Feature"},{"geometry":{"coordinates":[-85.3136,34.99995],"type":"Point"},"properties":{"description":"","id":"marker-hu7tv79b27","marker-color":"9c89cc","marker-size":"","marker-symbol":"marker","stop_code":"101","stop_desc":"","stop_id":"101","stop_name":"CENTRAL + 45TH","stop_url":"","title":"CENTRAL + 45TH","zone_id":""},"type":"Feature"},{"geometry":{"coordinates":[-85.31244,35.00202],"type":"Point"},"properties":{"description":"","id":"marker-hu7tv79b28","marker-color":"9c89cc","marker-size":"","marker-symbol":"marker","stop_code":"102","stop_desc":"","stop_id":"102","stop_name":"CENTRAL + 42ND","stop_url":"","title":"CENTRAL + 42ND","zone_id":""},"type":"Feature"},{"geometry":{"coordinates":[-85.31149,35.0038],"type":"Point"},"properties":{"description":"","id":"marker-hu7tv79b29","marker-color":"9c89cc","marker-size":"","marker-symbol":"marker","stop_code":"103","stop_desc":"","stop_id":"103","stop_name":"CENTRAL + 41ST","stop_url":"","title":"CENTRAL + 41ST","zone_id":""},"type":"Feature"},{"geometry":{"coordinates":[-85.31068,35.00531],"type":"Point"},"properties":{"description":"","id":"marker-hu7tv79b2a","marker-color":"9c89cc","marker-size":"","marker-symbol":"marker","stop_code":"104","stop_desc":"","stop_id":"104","stop_name":"CENTRAL + 38TH","stop_url":"","title":"CENTRAL + 38TH","zone_id":""},"type":"Feature"},{"geometry":{"coordinates":[-85.31144,35.00584],"type":"Point"},"properties":{"description":"","id":"marker-hu7tv79b2b","marker-color":"9c89cc","marker-size":"","marker-symbol":"marker","stop_code":"105","stop_desc":"","stop_id":"105","stop_name":"38TH + HUGHES","stop_url":"","title":"38TH + HUGHES","zone_id":""},"type":"Feature"},{"geometry":{"coordinates":[-85.31262,35.00629],"type":"Point"},"properties":{"description":"","id":"marker-hu7tv79b2c","marker-color":"9c89cc","marker-size":"","marker-symbol":"marker","stop_code":"106","stop_desc":"","stop_id":"106","stop_name":"38TH + KIRKLAND","stop_url":"","title":"38TH + KIRKLAND","zone_id":""},"type":"Feature"},{"geometry":{"coordinates":[-85.31376,35.00671],"type":"Point"},"properties":{"description":"","id":"marker-hu7tv79b2d","marker-color":"9c89cc","marker-size":"","marker-symbol":"marker","stop_code":"107","stop_desc":"","stop_id":"107","stop_name":"38TH + HIGHLAND","stop_url":"","title":"38TH + HIGHLAND","zone_id":""},"type":"Feature"},{"geometry":{"coordinates":[-85.31449,35.00699],"type":"Point"},"properties":{"description":"","id":"marker-hu7tv79b2e","marker-color":"9c89cc","marker-size":"","marker-symbol":"marker","stop_code":"108","stop_desc":"","stop_id":"108","stop_name":"38TH + CHANDLER PLACE","stop_url":"","title":"38TH + CHANDLER PLACE","zone_id":""},"type":"Feature"},{"geometry":{"coordinates":[-85.31622,35.00762],"type":"Point"},"properties":{"description":"","id":"marker-hu7tv79b2f","marker-color":"9c89cc","marker-size":"","marker-symbol":"marker","stop_code":"109","stop_desc":"","stop_id":"109","stop_name":"38TH + OHLS","stop_url":"","title":"38TH + OHLS","zone_id":""},"type":"Feature"},{"geometry":{"coordinates":[-85.31767,35.00818],"type":"Point"},"properties":{"description":"","id":"marker-hu7tv79b2g","marker-color":"9c89cc","marker-size":"","marker-symbol":"marker","stop_code":"110","stop_desc":"","stop_id":"110","stop_name":"38TH + ALTON PK BLVD","stop_url":"","title":"38TH + ALTON PK BLVD","zone_id":""},"type":"Feature"},{"geometry":{"coordinates":[-85.3173,35.00927],"type":"Point"},"properties":{"description":"","id":"marker-hu7tv79b2h","marker-color":"9c89cc","marker-size":"","marker-symbol":"marker","stop_code":"111","stop_desc":"","stop_id":"111","stop_name":"37TH + ALTON PARK BLVD","stop_url":"","title":"37TH + ALTON PARK BLVD","zone_id":""},"type":"Feature"},{"geometry":{"coordinates":[-85.31866,35.01006],"type":"Point"},"properties":{"description":"","id":"marker-hu7tv79b2i","marker-color":"9c89cc","marker-size":"","marker-symbol":"marker","stop_code":"112","stop_desc":"","stop_id":"112","stop_name":"37TH + CALVIN DONALDSON","stop_url":"","title":"37TH + CALVIN DONALDSON","zone_id":""},"type":"Feature"},{"geometry":{"coordinates":[-85.32002,35.01059],"type":"Point"},"properties":{"description":"","id":"marker-hu7tv79b2j","marker-color":"9c89cc","marker-size":"","marker-symbol":"marker","stop_code":"113","stop_desc":"","stop_id":"113","stop_name":"PIROLA + 37TH","stop_url":"","title":"PIROLA + 37TH","zone_id":""},"type":"Feature"},{"geometry":{"coordinates":[-85.32091,35.00939],"type":"Point"},"properties":{"description":"","id":"marker-hu7tv79b2k","marker-color":"9c89cc","marker-size":"","marker-symbol":"marker","stop_code":"114","stop_desc":"","stop_id":"114","stop_name":"PIROLA + 38TH","stop_url":"","title":"PIROLA + 38TH","zone_id":""},"type":"Feature"},{"geometry":{"coordinates":[-85.32147,35.00837],"type":"Point"},"properties":{"description":"","id":"marker-hu7tv79b2l","marker-color":"9c89cc","marker-size":"","marker-symbol":"marker","stop_code":"115","stop_desc":"","stop_id":"115","stop_name":"PIROLA + POST OFFICE","stop_url":"","title":"PIROLA + POST OFFICE","zone_id":""},"type":"Feature"},{"geometry":{"coordinates":[-85.32279,35.00821],"type":"Point"},"properties":{"description":"","id":"marker-hu7tv79b2m","marker-color":"9c89cc","marker-size":"","marker-symbol":"marker","stop_code":"116","stop_desc":"","stop_id":"116","stop_name":"40TH + SOUTHSIDE REC","stop_url":"","title":"40TH + SOUTHSIDE REC","zone_id":""},"type":"Feature"},{"geometry":{"coordinates":[-85.32414,35.00817],"type":"Point"},"properties":{"description":"","id":"marker-hu7tv79b2n","marker-color":"9c89cc","marker-size":"","marker-symbol":"marker","stop_code":"117","stop_desc":"","stop_id":"117","stop_name":"40TH + TEACHER PL","stop_url":"","title":"40TH + TEACHER PL","zone_id":""},"type":"Feature"},{"geometry":{"coordinates":[-85.32527,35.00813],"type":"Point"},"properties":{"description":"","id":"marker-hu7tv79b2o","marker-color":"9c89cc","marker-size":"","marker-symbol":"marker","stop_code":"118","stop_desc":"","stop_id":"118","stop_name":"40TH + BEN MILLER PK","stop_url":"","title":"40TH + BEN MILLER PK","zone_id":""},"type":"Feature"},{"geometry":{"coordinates":[-85.32579,35.01071],"type":"Point"},"properties":{"description":"","id":"marker-hu7tv79b2p","marker-color":"9c89cc","marker-size":"","marker-symbol":"marker","stop_code":"119","stop_desc":"","stop_id":"119","stop_name":"40TH + BI LO","stop_url":"","title":"40TH + BI LO","zone_id":""},"type":"Feature"},{"geometry":{"coordinates":[-85.3274,35.01103],"type":"Point"},"properties":{"description":"","id":"marker-hu7tv79b2q","marker-color":"9c89cc","marker-size":"","marker-symbol":"marker","stop_code":"120","stop_desc":"","stop_id":"120","stop_name":"38TH + TENNESSEE AVE","stop_url":"","title":"38TH + TENNESSEE AVE","zone_id":""},"type":"Feature"},{"geometry":{"coordinates":[-85.32222,35.01743],"type":"Point"},"properties":{"description":"","id":"marker-hu7tv79b2r","marker-color":"9c89cc","marker-size":"","marker-symbol":"marker","stop_code":"124","stop_desc":"","stop_id":"124","stop_name":"BROAD + 33RD","stop_url":"","title":"BROAD + 33RD","zone_id":""},"type":"Feature"},{"geometry":{"coordinates":[-85.32133,35.01727],"type":"Point"},"properties":{"description":"","id":"marker-hu7tv79b2s","marker-color":"9c89cc","marker-size":"","marker-symbol":"marker","stop_code":"125","stop_desc":"","stop_id":"125","stop_name":"33RD + CHATTEM","stop_url":"","title":"33RD + CHATTEM","zone_id":""},"type":"Feature"},{"geometry":{"coordinates":[-85.32023,35.01689],"type":"Point"},"properties":{"description":"","id":"marker-hu7tv79b2t","marker-color":"9c89cc","marker-size":"","marker-symbol":"marker","stop_code":"126","stop_desc":"","stop_id":"126","stop_name":"33RD + WILLIAMS","stop_url":"","title":"33RD + WILLIAMS","zone_id":""},"type":"Feature"},{"geometry":{"coordinates":[-85.31904,35.01647],"type":"Point"},"properties":{"description":"","id":"marker-hu7tv79b2u","marker-color":"9c89cc","marker-size":"","marker-symbol":"marker","stop_code":"127","stop_desc":"","stop_id":"127","stop_name":"33RD + TEEN CHALLENGE","stop_url":"","title":"33RD + TEEN CHALLENGE","zone_id":""},"type":"Feature"},{"geometry":{"coordinates":[-85.31797,35.0161],"type":"Point"},"properties":{"description":"","id":"marker-hu7tv79b2v","marker-color":"9c89cc","marker-size":"","marker-symbol":"marker","stop_code":"128","stop_desc":"","stop_id":"128","stop_name":"33RD + TARLTON","stop_url":"","title":"33RD + TARLTON","zone_id":""},"type":"Feature"},{"geometry":{"coordinates":[-85.31697,35.01575],"type":"Point"},"properties":{"description":"","id":"marker-hu7tv79b2w","marker-color":"9c89cc","marker-size":"","marker-symbol":"marker","stop_code":"129","stop_desc":"","stop_id":"129","stop_name":"33RD + DELONG","stop_url":"","title":"33RD + DELONG","zone_id":""},"type":"Feature"},{"geometry":{"coordinates":[-85.3146,35.01493],"type":"Point"},"properties":{"description":"","id":"marker-hu7tv79b2x","marker-color":"9c89cc","marker-size":"","marker-symbol":"marker","stop_code":"130","stop_desc":"","stop_id":"130","stop_name":"33RD + ALTON PK BLVD","stop_url":"","title":"33RD + ALTON PK BLVD","zone_id":""},"type":"Feature"},{"geometry":{"coordinates":[-85.313,35.01727],"type":"Point"},"properties":{"description":"","id":"marker-hu7tv79b2y","marker-color":"9c89cc","marker-size":"","marker-symbol":"marker","stop_code":"132","stop_desc":"","stop_id":"132","stop_name":"ALTON PK BLVD + 31ST","stop_url":"","title":"ALTON PK BLVD + 31ST","zone_id":""},"type":"Feature"},{"geometry":{"coordinates":[-85.31211,35.01886],"type":"Point"},"properties":{"description":"","id":"marker-hu7tv79b2z","marker-color":"9c89cc","marker-size":"","marker-symbol":"marker","stop_code":"133","stop_desc":"","stop_id":"133","stop_name":"ALTON PK BLVD + SHIPP","stop_url":"","title":"ALTON PK BLVD + SHIPP","zone_id":""},"type":"Feature"},{"geometry":{"coordinates":[-85.3115,35.01995],"type":"Point"},"properties":{"description":"","id":"marker-hu7tv79b30","marker-color":"9c89cc","marker-size":"","marker-symbol":"marker","stop_code":"134","stop_desc":"","stop_id":"134","stop_name":"S MARKET + D M WHITE","stop_url":"","title":"S MARKET + D M WHITE","zone_id":""},"type":"Feature"},{"geometry":{"coordinates":[-85.3116,35.024],"type":"Point"},"properties":{"description":"","id":"marker-hu7tv79b31","marker-color":"9c89cc","marker-size":"","marker-symbol":"marker","stop_code":"135","stop_desc":"","stop_id":"135","stop_name":"S MARKET + 28TH","stop_url":"","title":"S MARKET + 28TH","zone_id":""},"type":"Feature"},{"geometry":{"coordinates":[-85.31155,35.02546],"type":"Point"},"properties":{"description":"","id":"marker-hu7tv79b32","marker-color":"9c89cc","marker-size":"","marker-symbol":"marker","stop_code":"136","stop_desc":"","stop_id":"136","stop_name":"S MARKET + HOWARD SCHOOL OF ACADEMICS AND TECHNOLOGY","stop_url":"","title":"S MARKET + HOWARD SCHOOL OF ACADEMICS AND TECHNOLOGY","zone_id":""},"type":"Feature"},{"geometry":{"coordinates":[-85.31099,35.02649],"type":"Point"},"properties":{"description":"","id":"marker-hu7tv79b33","marker-color":"9c89cc","marker-size":"","marker-symbol":"marker","stop_code":"137","stop_desc":"","stop_id":"137","stop_name":"S MARKET + E 25TH","stop_url":"","title":"S MARKET + E 25TH","zone_id":""},"type":"Feature"},{"geometry":{"coordinates":[-85.30855,35.03227],"type":"Point"},"properties":{"description":"","id":"marker-hu7tv79b34","marker-color":"9c89cc","marker-size":"","marker-symbol":"marker","stop_code":"138","stop_desc":"","stop_id":"138","stop_name":"S MARKET + 19TH","stop_url":"","title":"S MARKET + 19TH","zone_id":""},"type":"Feature"},{"geometry":{"coordinates":[-85.3082,35.03414],"type":"Point"},"properties":{"description":"","id":"marker-hu7tv79b35","marker-color":"9c89cc","marker-size":"","marker-symbol":"marker","stop_code":"139","stop_desc":"","stop_id":"139","stop_name":"S MARKET + 17TH","stop_url":"","title":"S MARKET + 17TH","zone_id":""},"type":"Feature"},{"geometry":{"coordinates":[-85.30775,35.03509],"type":"Point"},"properties":{"description":"","id":"marker-hu7tv79b36","marker-color":"9c89cc","marker-size":"","marker-symbol":"marker","stop_code":"140","stop_desc":"","stop_id":"140","stop_name":"S MARKET + 16TH","stop_url":"","title":"S MARKET + 16TH","zone_id":""},"type":"Feature"},{"geometry":{"coordinates":[-85.30732,35.03586],"type":"Point"},"properties":{"description":"","id":"marker-hu7tv79b37","marker-color":"9c89cc","marker-size":"","marker-symbol":"marker","stop_code":"141","stop_desc":"","stop_id":"141","stop_name":"S MARKET + MAIN","stop_url":"","title":"S MARKET + MAIN","zone_id":""},"type":"Feature"},{"geometry":{"coordinates":[-85.30737,35.03746],"type":"Point"},"properties":{"description":"","id":"marker-hu7tv79b38","marker-color":"9c89cc","marker-size":"","marker-symbol":"marker","stop_code":"142","stop_desc":"","stop_id":"142","stop_name":"MARKET + CHOO CHOO","stop_url":"","title":"MARKET + CHOO CHOO","zone_id":""},"type":"Feature"},{"geometry":{"coordinates":[-85.30743,35.0386],"type":"Point"},"properties":{"description":"","id":"marker-hu7tv79b39","marker-color":"9c89cc","marker-size":"","marker-symbol":"marker","stop_code":"143","stop_desc":"","stop_id":"143","stop_name":"MARKET + SPS","stop_url":"","title":"MARKET + SPS","zone_id":""},"type":"Feature"},{"geometry":{"coordinates":[-85.30788,35.04026],"type":"Point"},"properties":{"description":"","id":"marker-hu7tv79b3a","marker-color":"9c89cc","marker-size":"","marker-symbol":"marker","stop_code":"144","stop_desc":"","stop_id":"144","stop_name":"MARKET + DRC","stop_url":"","title":"MARKET + DRC","zone_id":""},"type":"Feature"},{"geometry":{"coordinates":[-85.30864,35.04168],"type":"Point"},"properties":{"description":"","id":"marker-hu7tv79b3b","marker-color":"9c89cc","marker-size":"","marker-symbol":"marker","stop_code":"145","stop_desc":"","stop_id":"145","stop_name":"MARKET + 12TH","stop_url":"","title":"MARKET + 12TH","zone_id":""},"type":"Feature"},{"geometry":{"coordinates":[-85.30462,34.98959],"type":"Point"},"properties":{"description":"","id":"marker-hu7tv79b3c","marker-color":"9c89cc","marker-size":"","marker-symbol":"marker","stop_code":"146","stop_desc":"","stop_id":"146","stop_name":"ANGELA + WOODLAND VIEW","stop_url":"","title":"ANGELA + WOODLAND VIEW","zone_id":""},"type":"Feature"},{"geometry":{"coordinates":[-85.30658,34.9921],"type":"Point"},"properties":{"description":"","id":"marker-hu7tv79b3d","marker-color":"9c89cc","marker-size":"","marker-symbol":"marker","stop_code":"147","stop_desc":"","stop_id":"147","stop_name":"49TH + 715","stop_url":"","title":"49TH + 715","zone_id":""},"type":"Feature"},{"geometry":{"coordinates":[-85.30775,34.99252],"type":"Point"},"properties":{"description":"","id":"marker-hu7tv79b3e","marker-color":"9c89cc","marker-size":"","marker-symbol":"marker","stop_code":"148","stop_desc":"","stop_id":"148","stop_name":"49TH + WILSON","stop_url":"","title":"49TH + WILSON","zone_id":""},"type":"Feature"},{"geometry":{"coordinates":[-85.30745,34.99319],"type":"Point"},"properties":{"description":"","id":"marker-hu7tv79b3f","marker-color":"9c89cc","marker-size":"","marker-symbol":"marker","stop_code":"149","stop_desc":"","stop_id":"149","stop_name":"WILSON + 48TH","stop_url":"","title":"WILSON + 48TH","zone_id":""},"type":"Feature"},{"geometry":{"coordinates":[-85.30616,34.99567],"type":"Point"},"properties":{"description":"","id":"marker-hu7tv79c3g","marker-color":"9c89cc","marker-size":"","marker-symbol":"marker","stop_code":"150","stop_desc":"","stop_id":"150","stop_name":"WILSON + WORKMANS","stop_url":"","title":"WILSON + WORKMANS","zone_id":""},"type":"Feature"},{"geometry":{"coordinates":[-85.31166,34.99788],"type":"Point"},"properties":{"description":"","id":"marker-hu7tv79c3h","marker-color":"9c89cc","marker-size":"","marker-symbol":"marker","stop_code":"151","stop_desc":"","stop_id":"151","stop_name":"WORKMANS + FAGAN","stop_url":"","title":"WORKMANS + FAGAN","zone_id":""},"type":"Feature"},{"geometry":{"coordinates":[-85.31274,34.99829],"type":"Point"},"properties":{"description":"","id":"marker-hu7tv79c3i","marker-color":"9c89cc","marker-size":"","marker-symbol":"marker","stop_code":"152","stop_desc":"","stop_id":"152","stop_name":"WORKMANS + DORRIS","stop_url":"","title":"WORKMANS + DORRIS","zone_id":""},"type":"Feature"},{"geometry":{"coordinates":[-85.31405,34.99879],"type":"Point"},"properties":{"description":"","id":"marker-hu7tv79c3j","marker-color":"9c89cc","marker-size":"","marker-symbol":"marker","stop_code":"153","stop_desc":"","stop_id":"153","stop_name":"WORKMANS + CENTRAL","stop_url":"","title":"WORKMANS + CENTRAL","zone_id":""},"type":"Feature"},{"geometry":{"coordinates":[-85.30721,35.00651],"type":"Point"},"properties":{"description":"","id":"marker-hu7tv79c3k","marker-color":"9c89cc","marker-size":"","marker-symbol":"marker","stop_code":"154","stop_desc":"","stop_id":"154","stop_name":"SOUTHSIDE HEALTH CENTER","stop_url":"","title":"SOUTHSIDE HEALTH CENTER","zone_id":""},"type":"Feature"},{"geometry":{"coordinates":[-85.30549,34.98932],"type":"Point"},"properties":{"description":"","id":"marker-hu7tv79c3l","marker-color":"9c89cc","marker-size":"","marker-symbol":"marker","stop_code":"155","stop_desc":"","stop_id":"155","stop_name":"WOODLAND VIEW + JEFFEREY","stop_url":"","title":"WOODLAND VIEW + JEFFEREY","zone_id":""},"type":"Feature"},{"geometry":{"coordinates":[-85.30758,34.98981],"type":"Point"},"properties":{"description":"","id":"marker-hu7tv79c3m","marker-color":"9c89cc","marker-size":"","marker-symbol":"marker","stop_code":"156","stop_desc":"","stop_id":"156","stop_name":"WOODLAND VIEW + 51ST","stop_url":"","title":"WOODLAND VIEW + 51ST","zone_id":""},"type":"Feature"},{"geometry":{"coordinates":[-85.30904,34.99026],"type":"Point"},"properties":{"description":"","id":"marker-hu7tv79c3n","marker-color":"9c89cc","marker-size":"","marker-symbol":"marker","stop_code":"157","stop_desc":"","stop_id":"157","stop_name":"51ST + WILSON","stop_url":"","title":"51ST + WILSON","zone_id":""},"type":"Feature"},{"geometry":{"coordinates":[-85.31004,34.98899],"type":"Point"},"properties":{"description":"","id":"marker-hu7tv79c3o","marker-color":"9c89cc","marker-size":"","marker-symbol":"marker","stop_code":"158","stop_desc":"","stop_id":"158","stop_name":"52ND + WILSON","stop_url":"","title":"52ND + WILSON","zone_id":""},"type":"Feature"},{"geometry":{"coordinates":[-85.31173,34.98951],"type":"Point"},"properties":{"description":"","id":"marker-hu7tv79c3p","marker-color":"9c89cc","marker-size":"","marker-symbol":"marker","stop_code":"159","stop_desc":"","stop_id":"159","stop_name":"52ND + POLK","stop_url":"","title":"52ND + POLK","zone_id":""},"type":"Feature"},{"geometry":{"coordinates":[-85.31336,34.9901],"type":"Point"},"properties":{"description":"","id":"marker-hu7tv79c3q","marker-color":"9c89cc","marker-size":"","marker-symbol":"marker","stop_code":"160","stop_desc":"","stop_id":"160","stop_name":"52ND + 529","stop_url":"","title":"52ND + 529","zone_id":""},"type":"Feature"},{"geometry":{"coordinates":[-85.31454,34.99054],"type":"Point"},"properties":{"description":"","id":"marker-hu7tv79c3r","marker-color":"9c89cc","marker-size":"","marker-symbol":"marker","stop_code":"161","stop_desc":"","stop_id":"161","stop_name":"52ND + FAGAN","stop_url":"","title":"52ND + FAGAN","zone_id":""},"type":"Feature"},{"geometry":{"coordinates":[-85.3156,34.99073],"type":"Point"},"properties":{"description":"","id":"marker-hu7tv79c3s","marker-color":"9c89cc","marker-size":"","marker-symbol":"marker","stop_code":"162","stop_desc":"","stop_id":"162","stop_name":"DORRIS + 5201","stop_url":"","title":"DORRIS + 5201","zone_id":""},"type":"Feature"},{"geometry":{"coordinates":[-85.30928,35.04345],"type":"Point"},"properties":{"description":"","id":"marker-hu7tv79c3t","marker-color":"9c89cc","marker-size":"","marker-symbol":"marker","stop_code":"163","stop_desc":"","stop_id":"163","stop_name":"MARKET + 11TH  PATTEN TOWERS","stop_url":"","title":"MARKET + 11TH  PATTEN TOWERS","zone_id":""},"type":"Feature"},{"geometry":{"coordinates":[-85.30931,35.04505],"type":"Point"},"properties":{"description":"","id":"marker-hu7tv79c3u","marker-color":"9c89cc","marker-size":"","marker-symbol":"marker","stop_code":"164","stop_desc":"","stop_id":"164","stop_name":"MARKET + MILLER PK","stop_url":"","title":"MARKET + MILLER PK","zone_id":""},"type":"Feature"},{"geometry":{"coordinates":[-85.30934,35.04606],"type":"Point"},"properties":{"description":"","id":"marker-hu7tv79c3v","marker-color":"9c89cc","marker-size":"","marker-symbol":"marker","stop_code":"165","stop_desc":"","stop_id":"165","stop_name":"MARKET + M.L.KING","stop_url":"","title":"MARKET + M.L.KING","zone_id":""},"type":"Feature"},{"geometry":{"coordinates":[-85.30945,35.05072],"type":"Point"},"properties":{"description":"","id":"marker-hu7tv79c3w","marker-color":"9c89cc","marker-size":"","marker-symbol":"marker","stop_code":"166","stop_desc":"","stop_id":"166","stop_name":"MARKET + 5TH","stop_url":"","title":"MARKET + 5TH","zone_id":""},"type":"Feature"},{"geometry":{"coordinates":[-85.30955,35.05212],"type":"Point"},"properties":{"description":"","id":"marker-hu7tv79c3x","marker-color":"9c89cc","marker-size":"","marker-symbol":"marker","stop_code":"167","stop_desc":"","stop_id":"167","stop_name":"MARKET + 4TH","stop_url":"","title":"MARKET + 4TH","zone_id":""},"type":"Feature"},{"geometry":{"coordinates":[-85.30875,35.05215],"type":"Point"},"properties":{"description":"","id":"marker-hu7tv79c3y","marker-color":"9c89cc","marker-size":"","marker-symbol":"marker","stop_code":"168","stop_desc":"","stop_id":"168","stop_name":"4TH + CHERRY","stop_url":"","title":"4TH + CHERRY","zone_id":""},"type":"Feature"},{"geometry":{"coordinates":[-85.30664,35.05215],"type":"Point"},"properties":{"description":"","id":"marker-hu7tv79c3z","marker-color":"9c89cc","marker-size":"","marker-symbol":"marker","stop_code":"169","stop_desc":"","stop_id":"169","stop_name":"4TH + LOOKOUT","stop_url":"","title":"4TH + LOOKOUT","zone_id":""},"type":"Feature"},{"geometry":{"coordinates":[-85.30567,35.0521],"type":"Point"},"properties":{"description":"","id":"marker-hu7tv79c40","marker-color":"9c89cc","marker-size":"","marker-symbol":"marker","stop_code":"170","stop_desc":"","stop_id":"170","stop_name":"4TH + HIGH","stop_url":"","title":"4TH + HIGH","zone_id":""},"type":"Feature"},{"geometry":{"coordinates":[-85.30321,35.05183],"type":"Point"},"properties":{"description":"","id":"marker-hu7tv79c41","marker-color":"9c89cc","marker-size":"","marker-symbol":"marker","stop_code":"171","stop_desc":"","stop_id":"171","stop_name":"4TH + LINDSAY","stop_url":"","title":"4TH + LINDSAY","zone_id":""},"type":"Feature"},{"geometry":{"coordinates":[-85.30189,35.0513],"type":"Point"},"properties":{"description":"","id":"marker-hu7tv79c42","marker-color":"9c89cc","marker-size":"","marker-symbol":"marker","stop_code":"172","stop_desc":"","stop_id":"172","stop_name":"4TH + HOUSTON","stop_url":"","title":"4TH + HOUSTON","zone_id":""},"type":"Feature"},{"geometry":{"coordinates":[-85.30007,35.05073],"type":"Point"},"properties":{"description":"","id":"marker-hu7tv79c43","marker-color":"9c89cc","marker-size":"","marker-symbol":"marker","stop_code":"173","stop_desc":"","stop_id":"173","stop_name":"4TH + MABEL","stop_url":"","title":"4TH + MABEL","zone_id":""},"type":"Feature"},{"geometry":{"coordinates":[-85.2962,35.05006],"type":"Point"},"properties":{"description":"","id":"marker-hu7tv79c44","marker-color":"9c89cc","marker-size":"","marker-symbol":"marker","stop_code":"174","stop_desc":"","stop_id":"174","stop_name":"3RD + SISKIN","stop_url":"","title":"3RD + SISKIN","zone_id":""},"type":"Feature"},{"geometry":{"coordinates":[-85.29461,35.04963],"type":"Point"},"properties":{"description":"","id":"marker-hu7tv79c45","marker-color":"9c89cc","marker-size":"","marker-symbol":"marker","stop_code":"175","stop_desc":"","stop_id":"175","stop_name":"3RD + COLLINS","stop_url":"","title":"3RD + COLLINS","zone_id":""},"type":"Feature"},{"geometry":{"coordinates":[-85.29208,35.04833],"type":"Point"},"properties":{"description":"","id":"marker-hu7tv79c46","marker-color":"9c89cc","marker-size":"","marker-symbol":"marker","stop_code":"176","stop_desc":"","stop_id":"176","stop_name":"3RD + HAMPTON","stop_url":"","title":"3RD + HAMPTON","zone_id":""},"type":"Feature"},{"geometry":{"coordinates":[-85.29074,35.04781],"type":"Point"},"properties":{"description":"","id":"marker-hu7tv79c47","marker-color":"9c89cc","marker-size":"","marker-symbol":"marker","stop_code":"177","stop_desc":"","stop_id":"177","stop_name":"3RD + WIEHL","stop_url":"","title":"3RD + WIEHL","zone_id":""},"type":"Feature"},{"geometry":{"coordinates":[-85.28857,35.04695],"type":"Point"},"properties":{"description":"","id":"marker-hu7tv79c48","marker-color":"9c89cc","marker-size":"","marker-symbol":"marker","stop_code":"178","stop_desc":"","stop_id":"178","stop_name":"3RD + CENTRAL","stop_url":"","title":"3RD + CENTRAL","zone_id":""},"type":"Feature"},{"geometry":{"coordinates":[-85.28706,35.04639],"type":"Point"},"properties":{"description":"","id":"marker-hu7tv79c49","marker-color":"9c89cc","marker-size":"","marker-symbol":"marker","stop_code":"179","stop_desc":"","stop_id":"179","stop_name":"3RD + ONEAL","stop_url":"","title":"3RD + ONEAL","zone_id":""},"type":"Feature"},{"geometry":{"coordinates":[-85.28552,35.04584],"type":"Point"},"properties":{"description":"","id":"marker-hu7tv79c4a","marker-color":"9c89cc","marker-size":"","marker-symbol":"marker","stop_code":"180","stop_desc":"","stop_id":"180","stop_name":"3RD + SCRUGGS","stop_url":"","title":"3RD + SCRUGGS","zone_id":""},"type":"Feature"},{"geometry":{"coordinates":[-85.28054,35.04397],"type":"Point"},"properties":{"description":"","id":"marker-hu7tv79c4b","marker-color":"9c89cc","marker-size":"","marker-symbol":"marker","stop_code":"181","stop_desc":"","stop_id":"181","stop_name":"3RD + WARNER PARK","stop_url":"","title":"3RD + WARNER PARK","zone_id":""},"type":"Feature"},{"geometry":{"coordinates":[-85.27803,35.0431],"type":"Point"},"properties":{"description":"","id":"marker-hu7tv79c4c","marker-color":"9c89cc","marker-size":"","marker-symbol":"marker","stop_code":"182","stop_desc":"","stop_id":"182","stop_name":"3RD + HIGHLAND PARK","stop_url":"","title":"3RD + HIGHLAND PARK","zone_id":""},"type":"Feature"},{"geometry":{"coordinates":[-85.27679,35.04262],"type":"Point"},"properties":{"description":"","id":"marker-hu7tv79c4d","marker-color":"9c89cc","marker-size":"","marker-symbol":"marker","stop_code":"183","stop_desc":"","stop_id":"183","stop_name":"3RD + HOLLY","stop_url":"","title":"3RD + HOLLY","zone_id":""},"type":"Feature"},{"geometry":{"coordinates":[-85.27364,35.04145],"type":"Point"},"properties":{"description":"","id":"marker-hu7tv79c4e","marker-color":"9c89cc","marker-size":"","marker-symbol":"marker","stop_code":"184","stop_desc":"","stop_id":"184","stop_name":"3RD + HAWTHORNE","stop_url":"","title":"3RD + HAWTHORNE","zone_id":""},"type":"Feature"},{"geometry":{"coordinates":[-85.27164,35.04146],"type":"Point"},"properties":{"description":"","id":"marker-hu7tv79c4f","marker-color":"9c89cc","marker-size":"","marker-symbol":"marker","stop_code":"185","stop_desc":"","stop_id":"185","stop_name":"ORCHARD KNOB + GARFIELD","stop_url":"","title":"ORCHARD KNOB + GARFIELD","zone_id":""},"type":"Feature"},{"geometry":{"coordinates":[-85.26941,35.04573],"type":"Point"},"properties":{"description":"","id":"marker-hu7tv79c4g","marker-color":"9c89cc","marker-size":"","marker-symbol":"marker","stop_code":"188","stop_desc":"","stop_id":"188","stop_name":"OKNOB + CITICO","stop_url":"","title":"OKNOB + CITICO","zone_id":""},"type":"Feature"},{"geometry":{"coordinates":[-85.26894,35.04667],"type":"Point"},"properties":{"description":"","id":"marker-hu7tv79c4h","marker-color":"9c89cc","marker-size":"","marker-symbol":"marker","stop_code":"189","stop_desc":"","stop_id":"189","stop_name":"OKNOB + ROBBINS","stop_url":"","title":"OKNOB + ROBBINS","zone_id":""},"type":"Feature"},{"geometry":{"coordinates":[-85.26808,35.04826],"type":"Point"},"properties":{"description":"","id":"marker-hu7tv79c4i","marker-color":"9c89cc","marker-size":"","marker-symbol":"marker","stop_code":"190","stop_desc":"","stop_id":"190","stop_name":"OKNOB + MILNE","stop_url":"","title":"OKNOB + MILNE","zone_id":""},"type":"Feature"},{"geometry":{"coordinates":[-85.26571,35.05035],"type":"Point"},"properties":{"description":"","id":"marker-hu7tv79c4j","marker-color":"9c89cc","marker-size":"","marker-symbol":"marker","stop_code":"191","stop_desc":"","stop_id":"191","stop_name":"ROANOKE + COOLEY","stop_url":"","title":"ROANOKE + COOLEY","zone_id":""},"type":"Feature"},{"geometry":{"coordinates":[-85.26482,35.052],"type":"Point"},"properties":{"description":"","id":"marker-hu7tv79c4k","marker-color":"9c89cc","marker-size":"","marker-symbol":"marker","stop_code":"192","stop_desc":"","stop_id":"192","stop_name":"ROANOKE + WILSON","stop_url":"","title":"ROANOKE + WILSON","zone_id":""},"type":"Feature"},{"geometry":{"coordinates":[-85.26393,35.05362],"type":"Point"},"properties":{"description":"","id":"marker-hu7tv79c4l","marker-color":"9c89cc","marker-size":"","marker-symbol":"marker","stop_code":"193","stop_desc":"","stop_id":"193","stop_name":"ROANOKE + WILCOX SE","stop_url":"","title":"ROANOKE + WILCOX SE","zone_id":""},"type":"Feature"},{"geometry":{"coordinates":[-85.26299,35.05534],"type":"Point"},"properties":{"description":"","id":"marker-hu7tv79c4m","marker-color":"9c89cc","marker-size":"","marker-symbol":"marker","stop_code":"194","stop_desc":"","stop_id":"194","stop_name":"ROANOKE + CAMDEN","stop_url":"","title":"ROANOKE + CAMDEN","zone_id":""},"type":"Feature"},{"geometry":{"coordinates":[-85.26237,35.05649],"type":"Point"},"properties":{"description":"","id":"marker-hu7tv79c4n","marker-color":"9c89cc","marker-size":"","marker-symbol":"marker","stop_code":"195","stop_desc":"","stop_id":"195","stop_name":"ROANOKE + OCOEE","stop_url":"","title":"ROANOKE + OCOEE","zone_id":""},"type":"Feature"},{"geometry":{"coordinates":[-85.26202,35.05908],"type":"Point"},"properties":{"description":"","id":"marker-hu7tv79c4o","marker-color":"9c89cc","marker-size":"","marker-symbol":"marker","stop_code":"198","stop_desc":"","stop_id":"198","stop_name":"SOUTHERN + OKNOB","stop_url":"","title":"SOUTHERN + OKNOB","zone_id":""},"type":"Feature"},{"geometry":{"coordinates":[-85.26339,35.05966],"type":"Point"},"properties":{"description":"","id":"marker-hu7tv79c4p","marker-color":"9c89cc","marker-size":"","marker-symbol":"marker","stop_code":"199","stop_desc":"","stop_id":"199","stop_name":"SOUTHERN + HAWTHORNE","stop_url":"","title":"SOUTHERN + HAWTHORNE","zone_id":""},"type":"Feature"},{"geometry":{"coordinates":[-85.266,35.06057],"type":"Point"},"properties":{"description":"","id":"marker-hu7tv79c4q","marker-color":"9c89cc","marker-size":"","marker-symbol":"marker","stop_code":"200","stop_desc":"","stop_id":"200","stop_name":"SOUTHERN + SHOLAR","stop_url":"","title":"SOUTHERN + SHOLAR","zone_id":""},"type":"Feature"},{"geometry":{"coordinates":[-85.26255,35.06278],"type":"Point"},"properties":{"description":"","id":"marker-hu7tv79c4r","marker-color":"9c89cc","marker-size":"","marker-symbol":"marker","stop_code":"202","stop_desc":"","stop_id":"202","stop_name":"SHOLAR + 2038","stop_url":"","title":"SHOLAR + 2038","zone_id":""},"type":"Feature"},{"geometry":{"coordinates":[-85.26137,35.06217],"type":"Point"},"properties":{"description":"","id":"marker-hu7tv79c4s","marker-color":"9c89cc","marker-size":"","marker-symbol":"marker","stop_code":"203","stop_desc":"","stop_id":"203","stop_name":"SHOLAR + 2080 BLK","stop_url":"","title":"SHOLAR + 2080 BLK","zone_id":""},"type":"Feature"},{"geometry":{"coordinates":[-85.26207,35.0611],"type":"Point"},"properties":{"description":"","id":"marker-hu7tv79c4t","marker-color":"9c89cc","marker-size":"","marker-symbol":"marker","stop_code":"204","stop_desc":"","stop_id":"204","stop_name":"HAWTHORNE + HARDY","stop_url":"","title":"HAWTHORNE + HARDY","zone_id":""},"type":"Feature"},{"geometry":{"coordinates":[-85.26069,35.05979],"type":"Point"},"properties":{"description":"","id":"marker-hu7tv79c4u","marker-color":"9c89cc","marker-size":"","marker-symbol":"marker","stop_code":"205","stop_desc":"","stop_id":"205","stop_name":"SHERMAN + ROANOKE","stop_url":"","title":"SHERMAN + ROANOKE","zone_id":""},"type":"Feature"},{"geometry":{"coordinates":[-85.25889,35.05921],"type":"Point"},"properties":{"description":"","id":"marker-hu7tv79c4v","marker-color":"9c89cc","marker-size":"","marker-symbol":"marker","stop_code":"206","stop_desc":"","stop_id":"206","stop_name":"SHERMAN + CURTIS","stop_url":"","title":"SHERMAN + CURTIS","zone_id":""},"type":"Feature"},{"geometry":{"coordinates":[-85.25783,35.05846],"type":"Point"},"properties":{"description":"","id":"marker-hu7tv79c4w","marker-color":"9c89cc","marker-size":"","marker-symbol":"marker","stop_code":"207","stop_desc":"","stop_id":"207","stop_name":"SHERMAN + DODSON","stop_url":"","title":"SHERMAN + DODSON","zone_id":""},"type":"Feature"},{"geometry":{"coordinates":[-85.25571,35.06194],"type":"Point"},"properties":{"description":"","id":"marker-hu7tv79c4x","marker-color":"9c89cc","marker-size":"","marker-symbol":"marker","stop_code":"209","stop_desc":"","stop_id":"209","stop_name":"DODSON + HARDY JR","stop_url":"","title":"DODSON + HARDY JR","zone_id":""},"type":"Feature"},{"geometry":{"coordinates":[-85.2549,35.06346],"type":"Point"},"properties":{"description":"","id":"marker-hu7tv79c4y","marker-color":"9c89cc","marker-size":"","marker-symbol":"marker","stop_code":"210","stop_desc":"","stop_id":"210","stop_name":"DODSON + GLASS","stop_url":"","title":"DODSON + GLASS","zone_id":""},"type":"Feature"},{"geometry":{"coordinates":[-85.25455,35.06412],"type":"Point"},"properties":{"description":"","id":"marker-hu7tv79c4z","marker-color":"9c89cc","marker-size":"","marker-symbol":"marker","stop_code":"211","stop_desc":"","stop_id":"211","stop_name":"DODSON + CRUTCHFIELD","stop_url":"","title":"DODSON + CRUTCHFIELD","zone_id":""},"type":"Feature"},{"geometry":{"coordinates":[-85.25346,35.06607],"type":"Point"},"properties":{"description":"","id":"marker-hu7tv79c50","marker-color":"9c89cc","marker-size":"","marker-symbol":"marker","stop_code":"212","stop_desc":"","stop_id":"212","stop_name":"DODSON + DAISY","stop_url":"","title":"DODSON + DAISY","zone_id":""},"type":"Feature"},{"geometry":{"coordinates":[-85.2528,35.06732],"type":"Point"},"properties":{"description":"","id":"marker-hu7tv79c51","marker-color":"9c89cc","marker-size":"","marker-symbol":"marker","stop_code":"213","stop_desc":"","stop_id":"213","stop_name":"DODSON + APPLING","stop_url":"","title":"DODSON + APPLING","zone_id":""},"type":"Feature"},{"geometry":{"coordinates":[-85.25218,35.06841],"type":"Point"},"properties":{"description":"","id":"marker-hu7tv79c52","marker-color":"9c89cc","marker-size":"","marker-symbol":"marker","stop_code":"214","stop_desc":"","stop_id":"214","stop_name":"DODSON + FAIRLEIGH","stop_url":"","title":"DODSON + FAIRLEIGH","zone_id":""},"type":"Feature"},{"geometry":{"coordinates":[-85.25161,35.06947],"type":"Point"},"properties":{"description":"","id":"marker-hu7tv79c53","marker-color":"9c89cc","marker-size":"","marker-symbol":"marker","stop_code":"215","stop_desc":"","stop_id":"215","stop_name":"DODSON + BACHMAN","stop_url":"","title":"DODSON + BACHMAN","zone_id":""},"type":"Feature"},{"geometry":{"coordinates":[-85.25101,35.07058],"type":"Point"},"properties":{"description":"","id":"marker-hu7tv79c54","marker-color":"9c89cc","marker-size":"","marker-symbol":"marker","stop_code":"216","stop_desc":"","stop_id":"216","stop_name":"DODSON + CUSHMAN","stop_url":"","title":"DODSON + CUSHMAN","zone_id":""},"type":"Feature"},{"geometry":{"coordinates":[-85.25017,35.07173],"type":"Point"},"properties":{"description":"","id":"marker-hu7tv79c55","marker-color":"9c89cc","marker-size":"","marker-symbol":"marker","stop_code":"217","stop_desc":"","stop_id":"217","stop_name":"STUART + DODSON","stop_url":"","title":"STUART + DODSON","zone_id":""},"type":"Feature"},{"geometry":{"coordinates":[-85.26525,35.05109],"type":"Point"},"properties":{"description":"","id":"marker-hu7tv79c56","marker-color":"9c89cc","marker-size":"","marker-symbol":"marker","stop_code":"218","stop_desc":"","stop_id":"218","stop_name":"ROANOKE + LAURA","stop_url":"","title":"ROANOKE + LAURA","zone_id":""},"type":"Feature"},{"geometry":{"coordinates":[-85.26204,35.05039],"type":"Point"},"properties":{"description":"","id":"marker-hu7tv79c57","marker-color":"9c89cc","marker-size":"","marker-symbol":"marker","stop_code":"219","stop_desc":"","stop_id":"219","stop_name":"DODSON AVENUE HEALTH CENTER","stop_url":"","title":"DODSON AVENUE HEALTH CENTER","zone_id":""},"type":"Feature"},{"geometry":{"coordinates":[-85.26398,35.0518],"type":"Point"},"properties":{"description":"","id":"marker-hu7tv79c58","marker-color":"9c89cc","marker-size":"","marker-symbol":"marker","stop_code":"220","stop_desc":"","stop_id":"220","stop_name":"WILSON + BRADT","stop_url":"","title":"WILSON + BRADT","zone_id":""},"type":"Feature"},{"geometry":{"coordinates":[-85.18013,35.09312],"type":"Point"},"properties":{"description":"","id":"marker-hu7tv79c59","marker-color":"9c89cc","marker-size":"","marker-symbol":"marker","stop_code":"221","stop_desc":"","stop_id":"221","stop_name":"HIGHWAY 58 + JERSEY PIKE","stop_url":"","title":"HIGHWAY 58 + JERSEY PIKE","zone_id":""},"type":"Feature"},{"geometry":{"coordinates":[-85.18042,35.0916],"type":"Point"},"properties":{"description":"","id":"marker-hu7tv79d5a","marker-color":"9c89cc","marker-size":"","marker-symbol":"marker","stop_code":"222","stop_desc":"","stop_id":"222","stop_name":"JERSEY PIKE + GOODWILL","stop_url":"","title":"JERSEY PIKE + GOODWILL","zone_id":""},"type":"Feature"},{"geometry":{"coordinates":[-85.18233,35.08823],"type":"Point"},"properties":{"description":"","id":"marker-hu7tv79d5b","marker-color":"9c89cc","marker-size":"","marker-symbol":"marker","stop_code":"223","stop_desc":"","stop_id":"223","stop_name":"JERSEY PIKE + OAKWOOD","stop_url":"","title":"JERSEY PIKE + OAKWOOD","zone_id":""},"type":"Feature"},{"geometry":{"coordinates":[-85.19172,35.08641],"type":"Point"},"properties":{"description":"","id":"marker-hu7tv79d5c","marker-color":"9c89cc","marker-size":"","marker-symbol":"marker","stop_code":"225","stop_desc":"","stop_id":"225","stop_name":"HIGHWAY 58 + WEBB ROAD","stop_url":"","title":"HIGHWAY 58 + WEBB ROAD","zone_id":""},"type":"Feature"},{"geometry":{"coordinates":[-85.21354,35.08101],"type":"Point"},"properties":{"description":"","id":"marker-hu7tv79d5d","marker-color":"9c89cc","marker-size":"","marker-symbol":"marker","stop_code":"226","stop_desc":"","stop_id":"226","stop_name":"BONNY OAKS + ACCESS","stop_url":"","title":"BONNY OAKS + ACCESS","zone_id":""},"type":"Feature"},{"geometry":{"coordinates":[-85.2269,35.07956],"type":"Point"},"properties":{"description":"","id":"marker-hu7tv79d5e","marker-color":"9c89cc","marker-size":"","marker-symbol":"marker","stop_code":"227","stop_desc":"","stop_id":"227","stop_name":"CAMPBELL + ADDISON","stop_url":"","title":"CAMPBELL + ADDISON","zone_id":""},"type":"Feature"},{"geometry":{"coordinates":[-85.23464,35.07409],"type":"Point"},"properties":{"description":"","id":"marker-hu7tv79d5f","marker-color":"9c89cc","marker-size":"","marker-symbol":"marker","stop_code":"228","stop_desc":"","stop_id":"228","stop_name":"CAMPBELL + PARKWAY","stop_url":"","title":"CAMPBELL + PARKWAY","zone_id":""},"type":"Feature"},{"geometry":{"coordinates":[-85.23797,35.07344],"type":"Point"},"properties":{"description":"","id":"marker-hu7tv79d5g","marker-color":"9c89cc","marker-size":"","marker-symbol":"marker","stop_code":"229","stop_desc":"","stop_id":"229","stop_name":"CAMPBELL + BIRCHWOOD","stop_url":"","title":"CAMPBELL + BIRCHWOOD","zone_id":""},"type":"Feature"},{"geometry":{"coordinates":[-85.24622,35.07031],"type":"Point"},"properties":{"description":"","id":"marker-hu7tv79d5h","marker-color":"9c89cc","marker-size":"","marker-symbol":"marker","stop_code":"230","stop_desc":"","stop_id":"230","stop_name":"STUART + CHAMBERLAIN","stop_url":"","title":"STUART + CHAMBERLAIN","zone_id":""},"type":"Feature"},{"geometry":{"coordinates":[-85.24754,35.07083],"type":"Point"},"properties":{"description":"","id":"marker-hu7tv79d5i","marker-color":"9c89cc","marker-size":"","marker-symbol":"marker","stop_code":"231","stop_desc":"","stop_id":"231","stop_name":"STUART + WHEELER","stop_url":"","title":"STUART + WHEELER","zone_id":""},"type":"Feature"},{"geometry":{"coordinates":[-85.24885,35.07134],"type":"Point"},"properties":{"description":"","id":"marker-hu7tv79d5j","marker-color":"9c89cc","marker-size":"","marker-symbol":"marker","stop_code":"232","stop_desc":"","stop_id":"232","stop_name":"STUART + TAYLOR","stop_url":"","title":"STUART + TAYLOR","zone_id":""},"type":"Feature"},{"geometry":{"coordinates":[-85.25091,35.07088],"type":"Point"},"properties":{"description":"","id":"marker-hu7tv79d5k","marker-color":"9c89cc","marker-size":"","marker-symbol":"marker","stop_code":"233","stop_desc":"","stop_id":"233","stop_name":"DODSON + CUSHMAN","stop_url":"","title":"DODSON + CUSHMAN","zone_id":""},"type":"Feature"},{"geometry":{"coordinates":[-85.25153,35.0698],"type":"Point"},"properties":{"description":"","id":"marker-hu7tv79d5l","marker-color":"9c89cc","marker-size":"","marker-symbol":"marker","stop_code":"234","stop_desc":"","stop_id":"234","stop_name":"DODSON + BACHMAN","stop_url":"","title":"DODSON + BACHMAN","zone_id":""},"type":"Feature"},{"geometry":{"coordinates":[-85.25217,35.06863],"type":"Point"},"properties":{"description":"","id":"marker-hu7tv79d5m","marker-color":"9c89cc","marker-size":"","marker-symbol":"marker","stop_code":"235","stop_desc":"","stop_id":"235","stop_name":"DODSON + FAIRLEIGH","stop_url":"","title":"DODSON + FAIRLEIGH","zone_id":""},"type":"Feature"},{"geometry":{"coordinates":[-85.25272,35.06757],"type":"Point"},"properties":{"description":"","id":"marker-hu7tv79d5n","marker-color":"9c89cc","marker-size":"","marker-symbol":"marker","stop_code":"236","stop_desc":"","stop_id":"236","stop_name":"DODSON + APPLING","stop_url":"","title":"DODSON + APPLING","zone_id":""},"type":"Feature"},{"geometry":{"coordinates":[-85.25331,35.06648],"type":"Point"},"properties":{"description":"","id":"marker-hu7tv79d5o","marker-color":"9c89cc","marker-size":"","marker-symbol":"marker","stop_code":"237","stop_desc":"","stop_id":"237","stop_name":"DODSON + DAISY","stop_url":"","title":"DODSON + DAISY","zone_id":""},"type":"Feature"},{"geometry":{"coordinates":[-85.25439,35.06449],"type":"Point"},"properties":{"description":"","id":"marker-hu7tv79d5p","marker-color":"9c89cc","marker-size":"","marker-symbol":"marker","stop_code":"238","stop_desc":"","stop_id":"238","stop_name":"DODSON + CRUTCHFIELD","stop_url":"","title":"DODSON + CRUTCHFIELD","zone_id":""},"type":"Feature"},{"geometry":{"coordinates":[-85.2549,35.06356],"type":"Point"},"properties":{"description":"","id":"marker-hu7tv79d5q","marker-color":"9c89cc","marker-size":"","marker-symbol":"marker","stop_code":"239","stop_desc":"","stop_id":"239","stop_name":"DODSON + GLASS","stop_url":"","title":"DODSON + GLASS","zone_id":""},"type":"Feature"},{"geometry":{"coordinates":[-85.25571,35.06208],"type":"Point"},"properties":{"description":"","id":"marker-hu7tv79d5r","marker-color":"9c89cc","marker-size":"","marker-symbol":"marker","stop_code":"240","stop_desc":"","stop_id":"240","stop_name":"DODSON + HARDYJR","stop_url":"","title":"DODSON + HARDYJR","zone_id":""},"type":"Feature"},{"geometry":{"coordinates":[-85.25641,35.06079],"type":"Point"},"properties":{"description":"","id":"marker-hu7tv79d5s","marker-color":"9c89cc","marker-size":"","marker-symbol":"marker","stop_code":"241","stop_desc":"","stop_id":"241","stop_name":"DODSON + BRAGG","stop_url":"","title":"DODSON + BRAGG","zone_id":""},"type":"Feature"},{"geometry":{"coordinates":[-85.25768,35.05862],"type":"Point"},"properties":{"description":"","id":"marker-hu7tv79d5t","marker-color":"9c89cc","marker-size":"","marker-symbol":"marker","stop_code":"242","stop_desc":"","stop_id":"242","stop_name":"DODSON + SHERMAN","stop_url":"","title":"DODSON + SHERMAN","zone_id":""},"type":"Feature"},{"geometry":{"coordinates":[-85.25988,35.06072],"type":"Point"},"properties":{"description":"","id":"marker-hu7tv79d5u","marker-color":"9c89cc","marker-size":"","marker-symbol":"marker","stop_code":"243","stop_desc":"","stop_id":"243","stop_name":"HARDY + ROANOKE","stop_url":"","title":"HARDY + ROANOKE","zone_id":""},"type":"Feature"},{"geometry":{"coordinates":[-85.26194,35.06098],"type":"Point"},"properties":{"description":"","id":"marker-hu7tv79d5v","marker-color":"9c89cc","marker-size":"","marker-symbol":"marker","stop_code":"244","stop_desc":"","stop_id":"244","stop_name":"HARDY + HAWTHORNE","stop_url":"","title":"HARDY + HAWTHORNE","zone_id":""},"type":"Feature"},{"geometry":{"coordinates":[-85.26107,35.06216],"type":"Point"},"properties":{"description":"","id":"marker-hu7tv79d5w","marker-color":"9c89cc","marker-size":"","marker-symbol":"marker","stop_code":"245","stop_desc":"","stop_id":"245","stop_name":"SHOLAR + 2077","stop_url":"","title":"SHOLAR + 2077","zone_id":""},"type":"Feature"},{"geometry":{"coordinates":[-85.26236,35.06292],"type":"Point"},"properties":{"description":"","id":"marker-hu7tv79d5x","marker-color":"9c89cc","marker-size":"","marker-symbol":"marker","stop_code":"246","stop_desc":"","stop_id":"246","stop_name":"SHOLAR + 2037","stop_url":"","title":"SHOLAR + 2037","zone_id":""},"type":"Feature"},{"geometry":{"coordinates":[-85.26469,35.06255],"type":"Point"},"properties":{"description":"","id":"marker-hu7tv79d5y","marker-color":"9c89cc","marker-size":"","marker-symbol":"marker","stop_code":"247","stop_desc":"","stop_id":"247","stop_name":"SHOLAR + 2000 BLK","stop_url":"","title":"SHOLAR + 2000 BLK","zone_id":""},"type":"Feature"},{"geometry":{"coordinates":[-85.26601,35.06101],"type":"Point"},"properties":{"description":"","id":"marker-hu7tv79d5z","marker-color":"9c89cc","marker-size":"","marker-symbol":"marker","stop_code":"248","stop_desc":"","stop_id":"248","stop_name":"SHOLAR + 1900","stop_url":"","title":"SHOLAR + 1900","zone_id":""},"type":"Feature"},{"geometry":{"coordinates":[-85.26493,35.06016],"type":"Point"},"properties":{"description":"","id":"marker-hu7tv79d60","marker-color":"9c89cc","marker-size":"","marker-symbol":"marker","stop_code":"249","stop_desc":"","stop_id":"249","stop_name":"SOUTHERN + HICKORY","stop_url":"","title":"SOUTHERN + HICKORY","zone_id":""},"type":"Feature"},{"geometry":{"coordinates":[-85.26355,35.05963],"type":"Point"},"properties":{"description":"","id":"marker-hu7tv79d61","marker-color":"9c89cc","marker-size":"","marker-symbol":"marker","stop_code":"250","stop_desc":"","stop_id":"250","stop_name":"SOUTHERN + HAWTHORNE","stop_url":"","title":"SOUTHERN + HAWTHORNE","zone_id":""},"type":"Feature"},{"geometry":{"coordinates":[-85.26223,35.05914],"type":"Point"},"properties":{"description":"","id":"marker-hu7tv79d62","marker-color":"9c89cc","marker-size":"","marker-symbol":"marker","stop_code":"251","stop_desc":"","stop_id":"251","stop_name":"SOUTHERN + OKNOB","stop_url":"","title":"SOUTHERN + OKNOB","zone_id":""},"type":"Feature"},{"geometry":{"coordinates":[-85.26126,35.05876],"type":"Point"},"properties":{"description":"","id":"marker-hu7tv79d63","marker-color":"9c89cc","marker-size":"","marker-symbol":"marker","stop_code":"252","stop_desc":"","stop_id":"252","stop_name":"SOUTHERN + ROANOKE","stop_url":"","title":"SOUTHERN + ROANOKE","zone_id":""},"type":"Feature"},{"geometry":{"coordinates":[-85.26161,35.05794],"type":"Point"},"properties":{"description":"","id":"marker-hu7tv79d64","marker-color":"9c89cc","marker-size":"","marker-symbol":"marker","stop_code":"253","stop_desc":"","stop_id":"253","stop_name":"ROANOKE + OLIVE","stop_url":"","title":"ROANOKE + OLIVE","zone_id":""},"type":"Feature"},{"geometry":{"coordinates":[-85.26228,35.05671],"type":"Point"},"properties":{"description":"","id":"marker-hu7tv79d65","marker-color":"9c89cc","marker-size":"","marker-symbol":"marker","stop_code":"254","stop_desc":"","stop_id":"254","stop_name":"ROANOKE + OCOEE","stop_url":"","title":"ROANOKE + OCOEE","zone_id":""},"type":"Feature"},{"geometry":{"coordinates":[-85.26288,35.05562],"type":"Point"},"properties":{"description":"","id":"marker-hu7tv79d66","marker-color":"9c89cc","marker-size":"","marker-symbol":"marker","stop_code":"255","stop_desc":"","stop_id":"255","stop_name":"ROANOKE + CAMDEN","stop_url":"","title":"ROANOKE + CAMDEN","zone_id":""},"type":"Feature"},{"geometry":{"coordinates":[-85.26379,35.05398],"type":"Point"},"properties":{"description":"","id":"marker-hu7tv79d67","marker-color":"9c89cc","marker-size":"","marker-symbol":"marker","stop_code":"256","stop_desc":"","stop_id":"256","stop_name":"ROANOKE + WILCOX NW","stop_url":"","title":"ROANOKE + WILCOX NW","zone_id":""},"type":"Feature"},{"geometry":{"coordinates":[-85.26474,35.05233],"type":"Point"},"properties":{"description":"","id":"marker-hu7tv79d68","marker-color":"9c89cc","marker-size":"","marker-symbol":"marker","stop_code":"257","stop_desc":"","stop_id":"257","stop_name":"ROANOKE + WILSON","stop_url":"","title":"ROANOKE + WILSON","zone_id":""},"type":"Feature"},{"geometry":{"coordinates":[-85.26515,35.05151],"type":"Point"},"properties":{"description":"","id":"marker-hu7tv79d69","marker-color":"9c89cc","marker-size":"","marker-symbol":"marker","stop_code":"258","stop_desc":"","stop_id":"258","stop_name":"ROANOKE + LAURA","stop_url":"","title":"ROANOKE + LAURA","zone_id":""},"type":"Feature"},{"geometry":{"coordinates":[-85.26576,35.05072],"type":"Point"},"properties":{"description":"","id":"marker-hu7tv79d6a","marker-color":"9c89cc","marker-size":"","marker-symbol":"marker","stop_code":"259","stop_desc":"","stop_id":"259","stop_name":"ROANOKE + COOLEY","stop_url":"","title":"ROANOKE + COOLEY","zone_id":""},"type":"Feature"},{"geometry":{"coordinates":[-85.26606,35.04988],"type":"Point"},"properties":{"description":"","id":"marker-hu7tv79d6b","marker-color":"9c89cc","marker-size":"","marker-symbol":"marker","stop_code":"260","stop_desc":"","stop_id":"260","stop_name":"ROANOKE + PORTLAND","stop_url":"","title":"ROANOKE + PORTLAND","zone_id":""},"type":"Feature"},{"geometry":{"coordinates":[-85.26719,35.04942],"type":"Point"},"properties":{"description":"","id":"marker-hu7tv79d6c","marker-color":"9c89cc","marker-size":"","marker-symbol":"marker","stop_code":"261","stop_desc":"","stop_id":"261","stop_name":"OKNOB + 957","stop_url":"","title":"OKNOB + 957","zone_id":""},"type":"Feature"},{"geometry":{"coordinates":[-85.26797,35.04863],"type":"Point"},"properties":{"description":"","id":"marker-hu7tv79d6d","marker-color":"9c89cc","marker-size":"","marker-symbol":"marker","stop_code":"262","stop_desc":"","stop_id":"262","stop_name":"OKNOB + MILNE","stop_url":"","title":"OKNOB + MILNE","zone_id":""},"type":"Feature"},{"geometry":{"coordinates":[-85.26868,35.04731],"type":"Point"},"properties":{"description":"","id":"marker-hu7tv79d6e","marker-color":"9c89cc","marker-size":"","marker-symbol":"marker","stop_code":"263","stop_desc":"","stop_id":"263","stop_name":"OKNOB + CARSON","stop_url":"","title":"OKNOB + CARSON","zone_id":""},"type":"Feature"},{"geometry":{"coordinates":[-85.26932,35.04614],"type":"Point"},"properties":{"description":"","id":"marker-hu7tv79d6f","marker-color":"9c89cc","marker-size":"","marker-symbol":"marker","stop_code":"264","stop_desc":"","stop_id":"264","stop_name":"OKNOB + CITICO","stop_url":"","title":"OKNOB + CITICO","zone_id":""},"type":"Feature"},{"geometry":{"coordinates":[-85.27002,35.04483],"type":"Point"},"properties":{"description":"","id":"marker-hu7tv79d6g","marker-color":"9c89cc","marker-size":"","marker-symbol":"marker","stop_code":"265","stop_desc":"","stop_id":"265","stop_name":"OKNOB + JACKSON","stop_url":"","title":"OKNOB + JACKSON","zone_id":""},"type":"Feature"},{"geometry":{"coordinates":[-85.27081,35.04335],"type":"Point"},"properties":{"description":"","id":"marker-hu7tv79d6h","marker-color":"9c89cc","marker-size":"","marker-symbol":"marker","stop_code":"266","stop_desc":"","stop_id":"266","stop_name":"OKNOB + CLEVELAND","stop_url":"","title":"OKNOB + CLEVELAND","zone_id":""},"type":"Feature"},{"geometry":{"coordinates":[-85.27323,35.04135],"type":"Point"},"properties":{"description":"","id":"marker-hu7tv79d6i","marker-color":"9c89cc","marker-size":"","marker-symbol":"marker","stop_code":"269","stop_desc":"","stop_id":"269","stop_name":"3RD + HAWTHORNE","stop_url":"","title":"3RD + HAWTHORNE","zone_id":""},"type":"Feature"},{"geometry":{"coordinates":[-85.27647,35.04269],"type":"Point"},"properties":{"description":"","id":"marker-hu7tv79d6j","marker-color":"9c89cc","marker-size":"","marker-symbol":"marker","stop_code":"270","stop_desc":"","stop_id":"270","stop_name":"3RD + HOLLY","stop_url":"","title":"3RD + HOLLY","zone_id":""},"type":"Feature"},{"geometry":{"coordinates":[-85.27847,35.04342],"type":"Point"},"properties":{"description":"","id":"marker-hu7tv79d6k","marker-color":"9c89cc","marker-size":"","marker-symbol":"marker","stop_code":"271","stop_desc":"","stop_id":"271","stop_name":"3RD + DIAG CLINIC","stop_url":"","title":"3RD + DIAG CLINIC","zone_id":""},"type":"Feature"},{"geometry":{"coordinates":[-85.27965,35.04372],"type":"Point"},"properties":{"description":"","id":"marker-hu7tv79d6l","marker-color":"9c89cc","marker-size":"","marker-symbol":"marker","stop_code":"272","stop_desc":"","stop_id":"272","stop_name":"3RD + HOLTZCLAW","stop_url":"","title":"3RD + HOLTZCLAW","zone_id":""},"type":"Feature"},{"geometry":{"coordinates":[-85.28075,35.04429],"type":"Point"},"properties":{"description":"","id":"marker-hu7tv79d6m","marker-color":"9c89cc","marker-size":"","marker-symbol":"marker","stop_code":"273","stop_desc":"","stop_id":"273","stop_name":"3RD + FIELD HOUSE","stop_url":"","title":"3RD + FIELD HOUSE","zone_id":""},"type":"Feature"},{"geometry":{"coordinates":[-85.28521,35.04589],"type":"Point"},"properties":{"description":"","id":"marker-hu7tv79d6n","marker-color":"9c89cc","marker-size":"","marker-symbol":"marker","stop_code":"274","stop_desc":"","stop_id":"274","stop_name":"3RD + SCRUGGS","stop_url":"","title":"3RD + SCRUGGS","zone_id":""},"type":"Feature"},{"geometry":{"coordinates":[-85.28647,35.04639],"type":"Point"},"properties":{"description":"","id":"marker-hu7tv79d6o","marker-color":"9c89cc","marker-size":"","marker-symbol":"marker","stop_code":"275","stop_desc":"","stop_id":"275","stop_name":"3RD + ONEAL","stop_url":"","title":"3RD + ONEAL","zone_id":""},"type":"Feature"},{"geometry":{"coordinates":[-85.28774,35.04684],"type":"Point"},"properties":{"description":"","id":"marker-hu7tv79d6p","marker-color":"9c89cc","marker-size":"","marker-symbol":"marker","stop_code":"276","stop_desc":"","stop_id":"276","stop_name":"3RD + CENTRAL","stop_url":"","title":"3RD + CENTRAL","zone_id":""},"type":"Feature"},{"geometry":{"coordinates":[-85.29036,35.04782],"type":"Point"},"properties":{"description":"","id":"marker-hu7tv79d6q","marker-color":"9c89cc","marker-size":"","marker-symbol":"marker","stop_code":"277","stop_desc":"","stop_id":"277","stop_name":"3RD + WIEHL","stop_url":"","title":"3RD + WIEHL","zone_id":""},"type":"Feature"},{"geometry":{"coordinates":[-85.2917,35.04829],"type":"Point"},"properties":{"description":"","id":"marker-hu7tv79d6r","marker-color":"9c89cc","marker-size":"","marker-symbol":"marker","stop_code":"278","stop_desc":"","stop_id":"278","stop_name":"3RD + HAMPTON","stop_url":"","title":"3RD + HAMPTON","zone_id":""},"type":"Feature"},{"geometry":{"coordinates":[-85.29302,35.04873],"type":"Point"},"properties":{"description":"","id":"marker-hu7tv79d6s","marker-color":"9c89cc","marker-size":"","marker-symbol":"marker","stop_code":"279","stop_desc":"","stop_id":"279","stop_name":"3RD + PALMETTO","stop_url":"","title":"3RD + PALMETTO","zone_id":""},"type":"Feature"},{"geometry":{"coordinates":[-85.29432,35.04954],"type":"Point"},"properties":{"description":"","id":"marker-hu7tv79d6t","marker-color":"9c89cc","marker-size":"","marker-symbol":"marker","stop_code":"280","stop_desc":"","stop_id":"280","stop_name":"3RD + COLLINS","stop_url":"","title":"3RD + COLLINS","zone_id":""},"type":"Feature"},{"geometry":{"coordinates":[-85.29531,35.0499],"type":"Point"},"properties":{"description":"","id":"marker-hu7tv79d6u","marker-color":"9c89cc","marker-size":"","marker-symbol":"marker","stop_code":"281","stop_desc":"","stop_id":"281","stop_name":"3RD + CSAS","stop_url":"","title":"3RD + CSAS","zone_id":""},"type":"Feature"},{"geometry":{"coordinates":[-85.2993,35.05129],"type":"Point"},"properties":{"description":"","id":"marker-hu7tv79d6v","marker-color":"9c89cc","marker-size":"","marker-symbol":"marker","stop_code":"282","stop_desc":"","stop_id":"282","stop_name":"3RD + MABEL","stop_url":"","title":"3RD + MABEL","zone_id":""},"type":"Feature"},{"geometry":{"coordinates":[-85.3013,35.05191],"type":"Point"},"properties":{"description":"","id":"marker-hu7tv79d6w","marker-color":"9c89cc","marker-size":"","marker-symbol":"marker","stop_code":"283","stop_desc":"","stop_id":"283","stop_name":"3RD + HOUSTON","stop_url":"","title":"3RD + HOUSTON","zone_id":""},"type":"Feature"},{"geometry":{"coordinates":[-85.30243,35.05252],"type":"Point"},"properties":{"description":"","id":"marker-hu7tv79d6x","marker-color":"9c89cc","marker-size":"","marker-symbol":"marker","stop_code":"284","stop_desc":"","stop_id":"284","stop_name":"3RD + LINDSAY","stop_url":"","title":"3RD + LINDSAY","zone_id":""},"type":"Feature"},{"geometry":{"coordinates":[-85.30527,35.05351],"type":"Point"},"properties":{"description":"","id":"marker-hu7tv79d6y","marker-color":"9c89cc","marker-size":"","marker-symbol":"marker","stop_code":"285","stop_desc":"","stop_id":"285","stop_name":"3RD + HIGH","stop_url":"","title":"3RD + HIGH","zone_id":""},"type":"Feature"},{"geometry":{"coordinates":[-85.30734,35.05357],"type":"Point"},"properties":{"description":"","id":"marker-hu7tv79d6z","marker-color":"9c89cc","marker-size":"","marker-symbol":"marker","stop_code":"286","stop_desc":"","stop_id":"286","stop_name":"3RD + WALNUT","stop_url":"","title":"3RD + WALNUT","zone_id":""},"type":"Feature"},{"geometry":{"coordinates":[-85.30842,35.05355],"type":"Point"},"properties":{"description":"","id":"marker-hu7tv79d70","marker-color":"9c89cc","marker-size":"","marker-symbol":"marker","stop_code":"287","stop_desc":"","stop_id":"287","stop_name":"3RD + CHERRY","stop_url":"","title":"3RD + CHERRY","zone_id":""},"type":"Feature"},{"geometry":{"coordinates":[-85.25009,35.07193],"type":"Point"},"properties":{"description":"","id":"marker-hu7tv79d71","marker-color":"9c89cc","marker-size":"","marker-symbol":"marker","stop_code":"288","stop_desc":"","stop_id":"288","stop_name":"STUART + DODSON","stop_url":"","title":"STUART + DODSON","zone_id":""},"type":"Feature"},{"geometry":{"coordinates":[-85.24912,35.07142],"type":"Point"},"properties":{"description":"","id":"marker-hu7tv79d72","marker-color":"9c89cc","marker-size":"","marker-symbol":"marker","stop_code":"289","stop_desc":"","stop_id":"289","stop_name":"STUART + TAYLOR","stop_url":"","title":"STUART + TAYLOR","zone_id":""},"type":"Feature"},{"geometry":{"coordinates":[-85.2478,35.07089],"type":"Point"},"properties":{"description":"","id":"marker-hu7tv79d73","marker-color":"9c89cc","marker-size":"","marker-symbol":"marker","stop_code":"290","stop_desc":"","stop_id":"290","stop_name":"STUART + WHEELER","stop_url":"","title":"STUART + WHEELER","zone_id":""},"type":"Feature"},{"geometry":{"coordinates":[-85.24648,35.0704],"type":"Point"},"properties":{"description":"","id":"marker-hu7tv79d74","marker-color":"9c89cc","marker-size":"","marker-symbol":"marker","stop_code":"291","stop_desc":"","stop_id":"291","stop_name":"STUART + CHAMBERLAIN","stop_url":"","title":"STUART + CHAMBERLAIN","zone_id":""},"type":"Feature"},{"geometry":{"coordinates":[-85.24692,35.06931],"type":"Point"},"properties":{"description":"","id":"marker-hu7tv79d75","marker-color":"9c89cc","marker-size":"","marker-symbol":"marker","stop_code":"292","stop_desc":"","stop_id":"292","stop_name":"CHAMBERLAIN + CUSHMAN","stop_url":"","title":"CHAMBERLAIN + CUSHMAN","zone_id":""},"type":"Feature"},{"geometry":{"coordinates":[-85.2474,35.06851],"type":"Point"},"properties":{"description":"","id":"marker-hu7tv79d76","marker-color":"9c89cc","marker-size":"","marker-symbol":"marker","stop_code":"293","stop_desc":"","stop_id":"293","stop_name":"CHAMBERLAIN + BOONE","stop_url":"","title":"CHAMBERLAIN + BOONE","zone_id":""},"type":"Feature"},{"geometry":{"coordinates":[-85.24812,35.06721],"type":"Point"},"properties":{"description":"","id":"marker-hu7tv79d77","marker-color":"9c89cc","marker-size":"","marker-symbol":"marker","stop_code":"294","stop_desc":"","stop_id":"294","stop_name":"CHAMBERLAIN + FAIRLEIGH","stop_url":"","title":"CHAMBERLAIN + FAIRLEIGH","zone_id":""},"type":"Feature"},{"geometry":{"coordinates":[-85.24462,35.06676],"type":"Point"},"properties":{"description":"","id":"marker-hu7tv79d78","marker-color":"9c89cc","marker-size":"","marker-symbol":"marker","stop_code":"295","stop_desc":"","stop_id":"295","stop_name":"GLASS + WILHOIT","stop_url":"","title":"GLASS + WILHOIT","zone_id":""},"type":"Feature"},{"geometry":{"coordinates":[-85.24351,35.06718],"type":"Point"},"properties":{"description":"","id":"marker-hu7tv79d79","marker-color":"9c89cc","marker-size":"","marker-symbol":"marker","stop_code":"296","stop_desc":"","stop_id":"296","stop_name":"CAMPBELL + GLASS","stop_url":"","title":"CAMPBELL + GLASS","zone_id":""},"type":"Feature"},{"geometry":{"coordinates":[-85.24378,35.0695],"type":"Point"},"properties":{"description":"","id":"marker-hu7tv79d7a","marker-color":"9c89cc","marker-size":"","marker-symbol":"marker","stop_code":"297","stop_desc":"","stop_id":"297","stop_name":"CAMPBELL + MOON","stop_url":"","title":"CAMPBELL + MOON","zone_id":""},"type":"Feature"},{"geometry":{"coordinates":[-85.24328,35.07045],"type":"Point"},"properties":{"description":"","id":"marker-hu7tv79d7b","marker-color":"9c89cc","marker-size":"","marker-symbol":"marker","stop_code":"298","stop_desc":"","stop_id":"298","stop_name":"CAMPBELL + WILDER","stop_url":"","title":"CAMPBELL + WILDER","zone_id":""},"type":"Feature"},{"geometry":{"coordinates":[-85.24139,35.07243],"type":"Point"},"properties":{"description":"","id":"marker-hu7tv79d7c","marker-color":"9c89cc","marker-size":"","marker-symbol":"marker","stop_code":"299","stop_desc":"","stop_id":"299","stop_name":"CAMPBELL + BATTERY HEIGHTS","stop_url":"","title":"CAMPBELL + BATTERY HEIGHTS","zone_id":""},"type":"Feature"},{"geometry":{"coordinates":[-85.2381,35.0734],"type":"Point"},"properties":{"description":"","id":"marker-hu7tv79d7d","marker-color":"9c89cc","marker-size":"","marker-symbol":"marker","stop_code":"300","stop_desc":"","stop_id":"300","stop_name":"CAMPBELL + N.Y. AVE","stop_url":"","title":"CAMPBELL + N.Y. AVE","zone_id":""},"type":"Feature"},{"geometry":{"coordinates":[-85.23472,35.07403],"type":"Point"},"properties":{"description":"","id":"marker-hu7tv79d7e","marker-color":"9c89cc","marker-size":"","marker-symbol":"marker","stop_code":"301","stop_desc":"","stop_id":"301","stop_name":"BONNY OAKS + PARKWAY","stop_url":"","title":"BONNY OAKS + PARKWAY","zone_id":""},"type":"Feature"},{"geometry":{"coordinates":[-85.23329,35.07451],"type":"Point"},"properties":{"description":"","id":"marker-hu7tv79d7f","marker-color":"9c89cc","marker-size":"","marker-symbol":"marker","stop_code":"302","stop_desc":"","stop_id":"302","stop_name":"BONNY OAKS + TUGALOO","stop_url":"","title":"BONNY OAKS + TUGALOO","zone_id":""},"type":"Feature"},{"geometry":{"coordinates":[-85.23102,35.07573],"type":"Point"},"properties":{"description":"","id":"marker-hu7tv79d7g","marker-color":"9c89cc","marker-size":"","marker-symbol":"marker","stop_code":"303","stop_desc":"","stop_id":"303","stop_name":"BONNY OAKS + TALATHA","stop_url":"","title":"BONNY OAKS + TALATHA","zone_id":""},"type":"Feature"},{"geometry":{"coordinates":[-85.21421,35.08077],"type":"Point"},"properties":{"description":"","id":"marker-hu7tv79d7h","marker-color":"9c89cc","marker-size":"","marker-symbol":"marker","stop_code":"304","stop_desc":"","stop_id":"304","stop_name":"BONNY OAKS + ACCESS","stop_url":"","title":"BONNY OAKS + ACCESS","zone_id":""},"type":"Feature"},{"geometry":{"coordinates":[-85.20011,35.0845],"type":"Point"},"properties":{"description":"","id":"marker-hu7tv79d7i","marker-color":"9c89cc","marker-size":"","marker-symbol":"marker","stop_code":"305","stop_desc":"","stop_id":"305","stop_name":"HIGHWAY 58 + SHELBORNE","stop_url":"","title":"HIGHWAY 58 + SHELBORNE","zone_id":""},"type":"Feature"},{"geometry":{"coordinates":[-85.19889,35.08462],"type":"Point"},"properties":{"description":"","id":"marker-hu7tv79d7j","marker-color":"9c89cc","marker-size":"","marker-symbol":"marker","stop_code":"306","stop_desc":"","stop_id":"306","stop_name":"HIGHWAY 58 + INWOOD","stop_url":"","title":"HIGHWAY 58 + INWOOD","zone_id":""},"type":"Feature"},{"geometry":{"coordinates":[-85.19474,35.08515],"type":"Point"},"properties":{"description":"","id":"marker-hu7tv79d7k","marker-color":"9c89cc","marker-size":"","marker-symbol":"marker","stop_code":"307","stop_desc":"","stop_id":"307","stop_name":"HIGHWAY 58 + ROCKY RIVER","stop_url":"","title":"HIGHWAY 58 + ROCKY RIVER","zone_id":""},"type":"Feature"},{"geometry":{"coordinates":[-85.19296,35.08569],"type":"Point"},"properties":{"description":"","id":"marker-hu7tv79d7l","marker-color":"9c89cc","marker-size":"","marker-symbol":"marker","stop_code":"308","stop_desc":"","stop_id":"308","stop_name":"HIGHWAY 58 + BRIARWOOD","stop_url":"","title":"HIGHWAY 58 + BRIARWOOD","zone_id":""},"type":"Feature"},{"geometry":{"coordinates":[-85.19193,35.08613],"type":"Point"},"properties":{"description":"","id":"marker-hu7tv79d7m","marker-color":"9c89cc","marker-size":"","marker-symbol":"marker","stop_code":"309","stop_desc":"","stop_id":"309","stop_name":"HIGHWAY 58 + HAL DRIVE","stop_url":"","title":"HIGHWAY 58 + HAL DRIVE","zone_id":""},"type":"Feature"},{"geometry":{"coordinates":[-85.18263,35.09199],"type":"Point"},"properties":{"description":"","id":"marker-hu7tv79d7n","marker-color":"9c89cc","marker-size":"","marker-symbol":"marker","stop_code":"310","stop_desc":"","stop_id":"310","stop_name":"HIGHWAY 58 + FOOD LION","stop_url":"","title":"HIGHWAY 58 + FOOD LION","zone_id":""},"type":"Feature"},{"geometry":{"coordinates":[-85.26461,35.0521],"type":"Point"},"properties":{"description":"","id":"marker-hu7tv79d7o","marker-color":"9c89cc","marker-size":"","marker-symbol":"marker","stop_code":"311","stop_desc":"","stop_id":"311","stop_name":"WILSON + ROANOKE","stop_url":"","title":"WILSON + ROANOKE","zone_id":""},"type":"Feature"},{"geometry":{"coordinates":[-85.27216,35.04087],"type":"Point"},"properties":{"description":"","id":"marker-hu7tv79d7p","marker-color":"9c89cc","marker-size":"","marker-symbol":"marker","stop_code":"312","stop_desc":"","stop_id":"312","stop_name":"3RD + OKNOB","stop_url":"","title":"3RD + OKNOB","zone_id":""},"type":"Feature"},{"geometry":{"coordinates":[-85.26935,35.0399],"type":"Point"},"properties":{"description":"","id":"marker-hu7tv79d7q","marker-color":"9c89cc","marker-size":"","marker-symbol":"marker","stop_code":"313","stop_desc":"","stop_id":"313","stop_name":"3RD + WILLOW","stop_url":"","title":"3RD + WILLOW","zone_id":""},"type":"Feature"},{"geometry":{"coordinates":[-85.26972,35.03908],"type":"Point"},"properties":{"description":"","id":"marker-hu7tv79d7r","marker-color":"9c89cc","marker-size":"","marker-symbol":"marker","stop_code":"314","stop_desc":"","stop_id":"314","stop_name":"WILLOW + 4TH","stop_url":"","title":"WILLOW + 4TH","zone_id":""},"type":"Feature"},{"geometry":{"coordinates":[-85.27005,35.03834],"type":"Point"},"properties":{"description":"","id":"marker-hu7tv79d7s","marker-color":"9c89cc","marker-size":"","marker-symbol":"marker","stop_code":"315","stop_desc":"","stop_id":"315","stop_name":"WILLOW + 5TH","stop_url":"","title":"WILLOW + 5TH","zone_id":""},"type":"Feature"},{"geometry":{"coordinates":[-85.27045,35.03746],"type":"Point"},"properties":{"description":"","id":"marker-hu7tv79d7t","marker-color":"9c89cc","marker-size":"","marker-symbol":"marker","stop_code":"316","stop_desc":"","stop_id":"316","stop_name":"WILLOW + IVY","stop_url":"","title":"WILLOW + IVY","zone_id":""},"type":"Feature"},{"geometry":{"coordinates":[-85.271,35.03651],"type":"Point"},"properties":{"description":"","id":"marker-hu7tv79d7u","marker-color":"9c89cc","marker-size":"","marker-symbol":"marker","stop_code":"317","stop_desc":"","stop_id":"317","stop_name":"WILLOW + VINE","stop_url":"","title":"WILLOW + VINE","zone_id":""},"type":"Feature"},{"geometry":{"coordinates":[-85.27135,35.03581],"type":"Point"},"properties":{"description":"","id":"marker-hu7tv79d7v","marker-color":"9c89cc","marker-size":"","marker-symbol":"marker","stop_code":"318","stop_desc":"","stop_id":"318","stop_name":"WILLOW + OAK","stop_url":"","title":"WILLOW + OAK","zone_id":""},"type":"Feature"},{"geometry":{"coordinates":[-85.27227,35.03416],"type":"Point"},"properties":{"description":"","id":"marker-hu7tv79d7w","marker-color":"9c89cc","marker-size":"","marker-symbol":"marker","stop_code":"319","stop_desc":"","stop_id":"319","stop_name":"WILLOW + DUNCAN","stop_url":"","title":"WILLOW + DUNCAN","zone_id":""},"type":"Feature"},{"geometry":{"coordinates":[-85.27272,35.03335],"type":"Point"},"properties":{"description":"","id":"marker-hu7tv79d7x","marker-color":"9c89cc","marker-size":"","marker-symbol":"marker","stop_code":"320","stop_desc":"","stop_id":"320","stop_name":"WILLOW + CHAMBERLAIN","stop_url":"","title":"WILLOW + CHAMBERLAIN","zone_id":""},"type":"Feature"},{"geometry":{"coordinates":[-85.2718,35.03181],"type":"Point"},"properties":{"description":"","id":"marker-hu7tv79d7y","marker-color":"9c89cc","marker-size":"","marker-symbol":"marker","stop_code":"321","stop_desc":"","stop_id":"321","stop_name":"BAILEY AVE + KELLY","stop_url":"","title":"BAILEY AVE + KELLY","zone_id":""},"type":"Feature"},{"geometry":{"coordinates":[-85.2704,35.03128],"type":"Point"},"properties":{"description":"","id":"marker-hu7tv79d7z","marker-color":"9c89cc","marker-size":"","marker-symbol":"marker","stop_code":"322","stop_desc":"","stop_id":"322","stop_name":"BAILEY AVE + LYERLY","stop_url":"","title":"BAILEY AVE + LYERLY","zone_id":""},"type":"Feature"},{"geometry":{"coordinates":[-85.26426,35.03091],"type":"Point"},"properties":{"description":"","id":"marker-hu7tv79d80","marker-color":"9c89cc","marker-size":"","marker-symbol":"marker","stop_code":"323","stop_desc":"","stop_id":"323","stop_name":"DODDS + DUNCAN","stop_url":"","title":"DODDS + DUNCAN","zone_id":""},"type":"Feature"},{"geometry":{"coordinates":[-85.26345,35.03237],"type":"Point"},"properties":{"description":"","id":"marker-hu7tv79d81","marker-color":"9c89cc","marker-size":"","marker-symbol":"marker","stop_code":"324","stop_desc":"","stop_id":"324","stop_name":"GLENWOOD + OAK","stop_url":"","title":"GLENWOOD + OAK","zone_id":""},"type":"Feature"},{"geometry":{"coordinates":[-85.26275,35.03367],"type":"Point"},"properties":{"description":"","id":"marker-hu7tv79d82","marker-color":"9c89cc","marker-size":"","marker-symbol":"marker","stop_code":"325","stop_desc":"","stop_id":"325","stop_name":"GLENWOOD + VINE","stop_url":"","title":"GLENWOOD + VINE","zone_id":""},"type":"Feature"},{"geometry":{"coordinates":[-85.26199,35.03505],"type":"Point"},"properties":{"description":"","id":"marker-hu7tv79d83","marker-color":"9c89cc","marker-size":"","marker-symbol":"marker","stop_code":"326","stop_desc":"","stop_id":"326","stop_name":"GLENWOOD + 5TH","stop_url":"","title":"GLENWOOD + 5TH","zone_id":""},"type":"Feature"},{"geometry":{"coordinates":[-85.26156,35.03587],"type":"Point"},"properties":{"description":"","id":"marker-hu7tv79d84","marker-color":"9c89cc","marker-size":"","marker-symbol":"marker","stop_code":"327","stop_desc":"","stop_id":"327","stop_name":"GLENWOOD + 4TH","stop_url":"","title":"GLENWOOD + 4TH","zone_id":""},"type":"Feature"},{"geometry":{"coordinates":[-85.26104,35.03673],"type":"Point"},"properties":{"description":"","id":"marker-hu7tv79d85","marker-color":"9c89cc","marker-size":"","marker-symbol":"marker","stop_code":"328","stop_desc":"","stop_id":"328","stop_name":"GLENWOOD + 3RD","stop_url":"","title":"GLENWOOD + 3RD","zone_id":""},"type":"Feature"},{"geometry":{"coordinates":[-85.26102,35.03869],"type":"Point"},"properties":{"description":"","id":"marker-hu7tv79d86","marker-color":"9c89cc","marker-size":"","marker-symbol":"marker","stop_code":"329","stop_desc":"","stop_id":"329","stop_name":"GLENWOOD + 418 GLENWOOD","stop_url":"","title":"GLENWOOD + 418 GLENWOOD","zone_id":""},"type":"Feature"},{"geometry":{"coordinates":[-85.25964,35.03954],"type":"Point"},"properties":{"description":"","id":"marker-hu7tv79d87","marker-color":"9c89cc","marker-size":"","marker-symbol":"marker","stop_code":"330","stop_desc":"","stop_id":"330","stop_name":"GLENWOOD + PARKWOOD","stop_url":"","title":"GLENWOOD + PARKWOOD","zone_id":""},"type":"Feature"},{"geometry":{"coordinates":[-85.25783,35.04258],"type":"Point"},